_id,month,town,flat_type,block,street_name,storey_range,floor_area_sqm,flat_model,lease_commence_date,remaining_lease,resale_price,data_year,data_quarter,property_age,price_per_sqm,transaction_date,storey_start,storey_end,storey_mid,block_numeric,period,latitude,longitude,geocoded_address,nearest_mrt_distance_km,nearest_mrt_name,nearest_mrt_line,near_mrt_500m,near_mrt_1km,distance_to_cbd_km,distance_to_orchard_km,distance_to_changi_airport_km,distance_to_nus_km,distance_to_jurong_east_km,region,mature_estate
82942,2020-11,BEDOK,3 ROOM,808B,CHAI CHEE RD,07 TO 09,68.0,Model A,2016,95 years,480000.0,2020,4,9,7058.823529411765,2020-11-01,7,9,8.0,808,2020-Q4,1.32747242201869,103.923868263972,808B CHAI CHEE ROAD PING YI GREENS SINGAPORE 462808,0.8322113518391782,Bedok,EW,0,1,9.490618809432378,10.478738812479312,8.566466061041474,16.74899513039083,20.04860049679814,East,1
173684,2024-08,BUKIT MERAH,2 ROOM,45,TELOK BLANGAH DR,04 TO 06,45.0,Improved,1976,50 years 06 months,318000.0,2024,3,49,7066.666666666667,2024-08-01,4,6,5.0,45,2024-Q3,1.27175707090153,103.809560438327,45 TELOK BLANGAH DRIVE BLANGAH COURT SINGAPORE 100045,1.5182140691382742,HarbourFront,NE/CC,0,0,4.773342315440446,4.426898669494769,22.697712980882052,4.6065220861629,9.999502843810529,Central,1
202754,2025-02,SENGKANG,4 ROOM,303A,ANCHORVALE LINK,10 TO 12,90.0,Model A,2001,75 years 07 months,565000.0,2025,1,24,6277.777777777777,2025-02-01,10,12,11.0,303,2025-Q1,1.38707886249558,103.890776480517,303A ANCHORVALE LINK ANCHORVALE COURT SINGAPORE 541303,0.7670832652975894,Sengkang,NE,0,1,12.388990594351403,11.255769054225121,11.477185727683105,16.213588188589554,17.4345922915183,Northeast,0
43360,2019-01,WOODLANDS,3 ROOM,13,MARSILING LANE,04 TO 06,65.0,Improved,1976,56 years 02 months,207000.0,2019,1,49,3184.6153846153848,2019-01-01,4,6,5.0,13,2019-Q1,1.44109627463339,103.779276133737,13 MARSILING LANE MARSILING GARDENS SINGAPORE 730013,0.9287276586388674,Woodlands,NS/TE,0,1,19.303079024187422,16.321193328340385,25.085311851342034,16.070433377656556,12.66767150318365,North,0
70918,2020-06,BUKIT BATOK,EXECUTIVE,223,BT BATOK EAST AVE 3,10 TO 12,149.0,Maisonette,1985,64 years 03 months,612800.0,2020,2,40,4112.751677852349,2020-06-01,10,12,11.0,223,2020-Q2,1.34801554533173,103.753397257075,223 BUKIT BATOK EAST AVENUE 3 SINGAPORE 650223,2.0849017072062592,Jurong East,NS/EW,0,0,13.037952265810734,10.047580554681986,26.531027472099932,6.2629526208221735,2.0027852483887543,West,0
34542,2018-08,WOODLANDS,4 ROOM,575,WOODLANDS DR 16,07 TO 09,86.0,Model A2,2000,81 years 04 months,306000.0,2018,3,25,3558.139534883721,2018-08-01,7,9,8.0,575,2018-Q3,1.43118720442285,103.797237729001,575 WOODLANDS DRIVE 16 SINGAPORE 730575,1.3521167953704434,Woodlands,NS/TE,0,0,17.528005317161824,14.64360833764377,22.835848542250783,15.143622463191264,12.449714015605334,North,0
179319,2024-08,HOUGANG,4 ROOM,477A,UPP SERANGOON VIEW,13 TO 15,95.0,Premium Apartment,2016,90 years 09 months,762800.0,2024,3,9,8029.473684210527,2024-08-01,13,15,14.0,477,2024-Q3,1.37830875820742,103.903841957906,477A UPPER SERANGOON VIEW HOUGANG CAPEVIEW SINGAPORE 531477,1.7310846846211716,Sengkang,NE,0,0,12.11694410044731,11.428859776755068,9.866308250180857,16.830123649817203,18.514896202297777,Northeast,0
106668,2021-08,YISHUN,EXECUTIVE,361,YISHUN RING RD,01 TO 03,146.0,Maisonette,1988,65 years 10 months,655000.0,2021,3,37,4486.301369863014,2021-08-01,1,3,2.0,361,2021-Q3,1.42832475935828,103.845908268643,361 YISHUN RING ROAD YISHUN GLORY SINGAPORE 760361,6.498388207455335,Ang Mo Kio,NS,0,0,16.16928586836852,13.871236324977133,17.676404460290517,16.560235468039764,15.554094774517646,North,0
136534,2022-12,SENGKANG,4 ROOM,275B,COMPASSVALE LINK,13 TO 15,90.0,Premium Apartment,2009,85 years 07 months,690000.0,2022,4,16,7666.666666666667,2022-12-01,13,15,14.0,275,2022-Q4,1.38333897024769,103.894522123516,275B COMPASSVALE LINK ASPELLA SINGAPORE 542275,0.9422367621845722,Sengkang,NE,0,1,12.161013691071966,11.170406972165091,10.98411527991879,16.29256216375417,17.68970454902995,Northeast,0
125300,2022-12,GEYLANG,4 ROOM,2A,GEYLANG SERAI,16 TO 18,93.0,Model A,2011,88 years 01 month,795000.0,2022,4,14,8548.387096774193,2022-12-01,16,18,17.0,2,2022-Q4,1.31699648623217,103.897748935672,2A GEYLANG SERAI SRI GEYLANG SERAI SINGAPORE 403002,0.6180372164951633,Paya Lebar,EW/CC,0,1,6.426354063580933,7.389567548366337,11.678931338263975,13.67920048347963,17.227001721223164,East,1
160116,2023-08,SEMBAWANG,3 ROOM,104A,CANBERRA ST,13 TO 15,67.0,Model A,2018,94 years 01 month,450000.0,2023,3,7,6716.417910447762,2023-08-01,13,15,14.0,104,2023-Q3,1.45035225780871,103.832262400576,104A CANBERRA STREET EASTBROOK @ CANBERRA SINGAPORE 751104,5.302297562912144,Woodlands,NS/TE,0,0,18.724933741935338,16.240291570921944,20.1164815530987,18.189318243796937,16.36168824390672,North,0
46853,2019-04,BUKIT BATOK,4 ROOM,288D,BT BATOK ST 25,07 TO 09,93.0,Model A2,1998,78 years,408000.0,2019,2,27,4387.096774193548,2019-04-01,7,9,8.0,288,2019-Q2,1.34580304817683,103.759260051639,288D BUKIT BATOK STREET 25 NATURE VIEW SINGAPORE 653288,2.369195341449292,Jurong East,NS/EW,0,0,12.360161005135154,9.358705932657811,25.899366958076822,5.793417429562821,2.2558923656280254,West,0
30880,2018-07,CHOA CHU KANG,5 ROOM,751,CHOA CHU KANG NTH 5,01 TO 03,126.0,Improved,1995,75 years 11 months,408000.0,2018,3,30,3238.095238095238,2018-07-01,1,3,2.0,751,2018-Q3,1.39246581726118,103.747906889864,751 CHOA CHU KANG NORTH 5 SINGAPORE 680751,6.543438183296887,Woodlands,NS/TE,0,0,16.718170593635215,13.58456258293731,27.257719843314966,11.12041835980983,6.640697864898138,West,0
164411,2023-11,TAMPINES,4 ROOM,520C,TAMPINES CTRL 8,04 TO 06,84.0,DBSS,2014,89 years 08 months,777000.0,2023,4,11,9250.0,2023-11-01,4,6,5.0,520,2023-Q4,1.35674170789189,103.939692399456,520C TAMPINES CENTRAL 8 CENTRALE 8 AT TAMPINES SINGAPORE 523520,0.7510497184829404,Tampines,EW/DT,0,1,12.823627645943978,13.266327091561395,5.82173533215252,19.345085038298258,21.959090897638685,East,0
112861,2021-11,KALLANG/WHAMPOA,4 ROOM,102,JLN RAJAH,04 TO 06,94.0,New Generation,1981,58 years 04 months,500000.0,2021,4,44,5319.148936170212,2021-11-01,4,6,5.0,102,2021-Q4,1.32822306444761,103.851519753845,102 JALAN RAJAH RAJAH COURT SINGAPORE 321102,2.585112543175302,Bishan,NS/CC,0,0,5.028907266965399,3.3980433823725913,16.07234968132261,9.06087553436861,12.00815998791093,Central,1
95876,2021-04,PASIR RIS,5 ROOM,526D,PASIR RIS ST 51,04 TO 06,113.0,Improved,2015,93 years 04 months,643888.0,2021,2,10,5698.123893805309,2021-04-01,4,6,5.0,526,2021-Q2,1.36866830502329,103.947274003279,526D PASIR RIS STREET 51 COSTA RIS SINGAPORE 514526,1.569758560177232,Tampines,EW/DT,0,0,14.327662956829508,14.629290238275948,4.93916398227984,20.616381813763432,22.987898540623068,East,1
181976,2024-10,JURONG WEST,5 ROOM,839,JURONG WEST ST 81,10 TO 12,136.0,Model A,1993,67 years 08 months,610000.0,2024,4,32,4485.294117647059,2024-10-01,10,12,11.0,839,2024-Q4,1.34357907005993,103.69277172197,839 JURONG WEST STREET 81 NANYANG PEARL SINGAPORE 640839,5.63238786264013,Jurong East,NS/EW,0,0,18.83527120041964,16.135304772342902,33.288401249107274,10.663709217644874,5.773734047968513,West,0
145597,2023-11,BEDOK,4 ROOM,51,NEW UPP CHANGI RD,13 TO 15,84.0,Improved,1977,52 years 11 months,500000.0,2023,4,48,5952.380952380952,2023-11-01,13,15,14.0,51,2023-Q4,1.32342985805207,103.942269407116,51 NEW UPPER CHANGI ROAD SINGAPORE 461051,1.309884180834303,Bedok,EW,0,0,11.097436898793802,12.386605332879753,7.1207051224740985,18.678801932843317,22.110185425259836,East,1
50424,2019-05,YISHUN,3 ROOM,128,YISHUN ST 11,04 TO 06,74.0,Model A,1985,64 years 10 months,243000.0,2019,2,40,3283.783783783784,2019-05-01,4,6,5.0,128,2019-Q2,1.43387793728634,103.831302218611,128 YISHUN STREET 11 SINGAPORE 760128,4.991540310965514,Woodlands,NS/TE,0,0,16.91915354423122,14.409024438754678,19.411465375426076,16.439474461787736,14.870107915632092,North,0
49994,2019-05,SENGKANG,5 ROOM,206A,COMPASSVALE LANE,07 TO 09,123.0,Improved,1999,79 years 03 months,440000.0,2019,2,26,3577.235772357724,2019-05-01,7,9,8.0,206,2019-Q2,1.38648068232058,103.896739891401,206A COMPASSVALE LANE COMPASSVALE PLACE SINGAPORE 541206,0.5878235430473704,Sengkang,NE,0,1,12.579903038826629,11.59745093511906,10.816163685024279,16.698607435123822,18.036046549828765,Northeast,0
69924,2020-04,JURONG WEST,4 ROOM,474,JURONG WEST ST 41,01 TO 03,103.0,Model A,1984,63 years 06 months,355000.0,2020,2,41,3446.6019417475727,2020-04-01,1,3,2.0,474,2020-Q2,1.34809707501986,103.724184231142,474 JURONG WEST STREET 41 JURONGVILLE @ STREET 41 SINGAPORE 640474,2.6288902051567455,Jurong East,NS/EW,0,0,15.84728222886198,12.988502459168581,29.771073420293405,8.153692076409728,2.741167757176828,West,0
47706,2019-04,PUNGGOL,5 ROOM,175A,PUNGGOL FIELD,04 TO 06,110.0,Improved,2003,83 years 05 months,428000.0,2019,2,22,3890.909090909091,2019-04-01,4,6,5.0,175,2019-Q2,1.39740421637591,103.908973749809,175A PUNGGOL FIELD SINGAPORE 821175,1.122091639136462,Punggol,NE,0,0,14.260479787863023,13.395817612351099,9.880659279914774,18.515732396228145,19.733182346459387,Northeast,0
132053,2022-09,PUNGGOL,4 ROOM,167D,PUNGGOL EAST,07 TO 09,92.0,Premium Apartment,2009,85 years 07 months,502500.0,2022,3,16,5461.95652173913,2022-09-01,7,9,8.0,167,2022-Q3,1.3945483994992,103.91452934796,167D PUNGGOL EAST THE SUNDIAL SINGAPORE 824167,1.7927777498631399,Punggol,NE,0,0,14.273210120276238,13.559333137253116,9.189555040771783,18.825494817864648,20.19981122005509,Northeast,0
198586,2025-04,BUKIT MERAH,4 ROOM,92B,TELOK BLANGAH ST 31,19 TO 21,93.0,Model A,2018,92 years 09 months,1010000.0,2025,2,7,10860.21505376344,2025-04-01,19,21,20.0,92,2025-Q2,1.27587916988466,103.80732980539,92B TELOK BLANGAH STREET 31 TELOK BLANGAH PARCVIEW SINGAPORE 102092,1.96692178875926,HarbourFront,NE/CC,0,0,4.918840912064836,4.220958724519955,22.71660582385346,4.1389667626301785,9.507496671581826,Central,1
144085,2023-09,ANG MO KIO,3 ROOM,330,ANG MO KIO AVE 1,01 TO 03,68.0,New Generation,1981,56 years 07 months,360000.0,2023,3,44,5294.117647058823,2023-09-01,1,3,2.0,330,2023-Q3,1.36243186402478,103.851030689651,330 ANG MO KIO AVENUE 1 TECK GHEE VIEW SINGAPORE 560330,0.8564347838392995,Ang Mo Kio,NS,0,1,8.832420952365426,6.784270396673717,15.616586074538489,11.064076844817569,12.385687263616383,Northeast,1
181485,2024-05,JURONG WEST,4 ROOM,323,TAH CHING RD,04 TO 06,106.0,Model A,1997,72 years,505888.0,2024,2,28,4772.528301886792,2024-05-01,4,6,5.0,323,2024-Q2,1.3368180785281,103.723914562532,323 TAH CHING ROAD SINGAPORE 610323,2.089731699365742,Jurong East,NS/EW,0,0,15.34274536312467,12.600872845059845,29.90356953823603,7.3512885107654595,2.2312737845054724,West,0
9435,2017-06,TAMPINES,EXECUTIVE,497J,TAMPINES ST 45,04 TO 06,144.0,Premium Apartment,1996,78 years,580000.0,2017,2,29,4027.777777777778,2017-06-01,4,6,5.0,497,2017-Q2,1.35926416653664,103.959503982842,497J TAMPINES STREET 45 SINGAPORE 527497,1.5777163334801603,Tampines,EW/DT,0,0,14.744580300862815,15.384474857389131,3.6023443599851572,21.514381254853312,24.179176151807276,East,0
64725,2020-01,CENTRAL AREA,3 ROOM,538,UPP CROSS ST,10 TO 12,60.0,Improved,1978,57 years 09 months,414000.0,2020,1,47,6900.0,2020-01-01,10,12,11.0,538,2020-Q1,1.28521219232764,103.845766165764,538 UPPER CROSS STREET SINGAPORE 050538,0.7240313868503412,Raffles Place,NS/EW,0,1,0.6316915051290081,2.584524368600331,18.438822440201136,7.814484036927645,12.534289556390142,Central,1
200367,2025-04,JURONG WEST,3 ROOM,175,BOON LAY DR,04 TO 06,59.0,Improved,1978,52 years 04 months,322000.0,2025,2,47,5457.627118644068,2025-04-01,4,6,5.0,175,2025-Q2,1.34668916681369,103.709485323529,175 BOON LAY DRIVE BOON LAY GREEN SINGAPORE 640175,3.956970191942743,Jurong East,NS/EW,0,0,17.252123804400018,14.464470092618548,31.4116205139246,9.292674000955328,4.090577092562009,West,0
107559,2021-09,HOUGANG,5 ROOM,655,HOUGANG AVE 8,13 TO 15,120.0,Improved,1987,65 years 01 month,560000.0,2021,3,38,4666.666666666667,2021-09-01,13,15,14.0,655,2021-Q3,1.37304728126508,103.881935611166,655 HOUGANG AVENUE 8 SINGAPORE 530655,2.590661815803055,Sengkang,NE,0,0,10.586907829391675,9.414694056019728,12.217424099344084,14.487767202173846,16.01279365286463,Northeast,0
150855,2023-04,CLEMENTI,3 ROOM,608,CLEMENTI WEST ST 1,10 TO 12,67.0,New Generation,1979,55 years 08 months,465000.0,2023,2,46,6940.298507462687,2023-04-01,10,12,11.0,608,2023-Q2,1.30434110257324,103.766529796163,608 CLEMENTI WEST STREET 1 SINGAPORE 120608,2.669976414488327,Buona Vista,EW/CC,0,0,9.685468101048736,7.333652727101022,25.885073898831692,1.3945786135042995,4.0720847287230155,West,1
56831,2019-09,BUKIT PANJANG,3 ROOM,486,SEGAR RD,13 TO 15,67.0,Model A,2014,94 years 03 months,336000.0,2019,3,11,5014.925373134329,2019-09-01,13,15,14.0,486,2019-Q3,1.38924060817621,103.77162077126,486 SEGAR ROAD SEGAR GROVE SINGAPORE 670486,5.551594694156122,Woodlands,NS/TE,0,0,14.745261096914899,11.6192789123828,24.59797107745912,10.314856845777577,6.996436297570507,West,0
93292,2021-03,JURONG WEST,5 ROOM,426,JURONG WEST AVE 1,01 TO 03,136.0,Model A,1985,63 years 02 months,447000.0,2021,1,40,3286.764705882353,2021-03-01,1,3,2.0,426,2021-Q1,1.35159139427911,103.72464010393,426 JURONG WEST AVENUE 1 SINGAPORE 640426,2.8589619505200705,Jurong East,NS/EW,0,0,15.983922547154606,13.092693491018036,29.699302368726222,8.396291676694187,2.9600595495481343,West,0
286,2017-01,BUKIT PANJANG,5 ROOM,654,SENJA RD,16 TO 18,111.0,Premium Apartment,2001,83 years 09 months,475000.0,2017,1,24,4279.279279279279,2017-01-01,16,18,17.0,654,2017-Q1,1.38784692769514,103.764249296909,654 SENJA ROAD SINGAPORE 670654,5.989059163559545,Woodlands,NS/TE,0,0,15.130060035928915,11.9944623787653,25.39601930174359,10.235709140044456,6.526789815653268,West,0
77960,2020-09,ANG MO KIO,5 ROOM,111,ANG MO KIO AVE 4,10 TO 12,117.0,Improved,1978,56 years 11 months,515000.0,2020,3,47,4401.709401709401,2020-09-01,10,12,11.0,111,2020-Q3,1.37085148985913,103.837298157413,111 ANG MO KIO AVENUE 4 KEBUN BARU HEIGHTS SINGAPORE 560111,1.3707849921465551,Ang Mo Kio,NS,0,0,9.886676062487675,7.419385611881484,17.156582558700258,10.67694798995776,11.238266837035837,Northeast,1
82092,2020-10,SENGKANG,5 ROOM,311A,ANCHORVALE LANE,16 TO 18,111.0,Premium Apartment,2002,80 years 11 months,425000.0,2020,4,23,3828.828828828829,2020-10-01,16,18,17.0,311,2020-Q4,1.39096468167495,103.884060305383,311A ANCHORVALE LANE ANCHORVALE VISTA SINGAPORE 541311,1.3186631503370059,Sengkang,NE,0,0,12.55506487462593,11.212375696351431,12.303153313219408,15.916440947954257,16.896308822034886,Northeast,0
94434,2021-03,WOODLANDS,4 ROOM,663,WOODLANDS RING RD,01 TO 03,101.0,Model A,1998,75 years 11 months,375000.0,2021,1,27,3712.871287128713,2021-03-01,1,3,2.0,663,2021-Q1,1.43622091646168,103.798410261725,663 WOODLANDS RING ROAD SINGAPORE 730663,1.3260960385026443,Woodlands,NS/TE,0,0,18.012469944934203,15.150517227043474,22.901733792531275,15.716755332614262,13.004398464479591,North,0
159908,2023-05,SEMBAWANG,4 ROOM,107B,CANBERRA ST,13 TO 15,93.0,Model A,2018,94 years 03 months,605000.0,2023,2,7,6505.376344086021,2023-05-01,13,15,14.0,107,2023-Q2,1.44916516333167,103.833497265983,107B CANBERRA STREET EASTBROOK @ CANBERRA SINGAPORE 752107,5.399285451902703,Woodlands,NS/TE,0,0,18.57888307982604,16.108652676935243,19.93304994863212,18.112951659319094,16.3401091639546,North,0
182254,2024-07,JURONG WEST,EXECUTIVE,912,JURONG WEST ST 91,04 TO 06,145.0,Apartment,1988,63 years 04 months,652000.0,2024,3,37,4496.551724137931,2024-07-01,4,6,5.0,912,2024-Q3,1.34135800681512,103.687269647605,912 JURONG WEST STREET 91 SINGAPORE 640912,6.189302331180021,Jurong East,NS/EW,0,0,19.323370060372934,16.662146813086785,33.91635667828746,11.087918087951854,6.332176297045542,West,0
146676,2023-05,BUKIT BATOK,5 ROOM,111,BT BATOK WEST AVE 6,10 TO 12,132.0,Model A,1985,60 years 11 months,715000.0,2023,2,40,5416.666666666667,2023-05-01,10,12,11.0,111,2023-Q2,1.34840644346954,103.745994934101,111 BUKIT BATOK WEST AVENUE 6 SINGAPORE 650111,1.772486381740615,Jurong East,NS/EW,0,0,13.753267259136766,10.794785506239485,27.349150623182556,6.678996279938906,1.7446705763605492,West,0
189316,2024-12,SENGKANG,5 ROOM,206B,COMPASSVALE LANE,01 TO 03,123.0,Improved,1999,73 years 08 months,660000.0,2024,4,26,5365.8536585365855,2024-12-01,1,3,2.0,206,2024-Q4,1.38743807067892,103.896932112772,206B COMPASSVALE LANE COMPASSVALE PLACE SINGAPORE 542206,0.4875954191072368,Sengkang,NE,1,1,12.685934527052323,11.694590381096326,10.820061439839352,16.779595675490203,18.091619233304126,Northeast,0
160313,2023-10,SEMBAWANG,4 ROOM,359,ADMIRALTY DR,07 TO 09,96.0,Premium Apartment,2001,77 years,500000.0,2023,4,24,5208.333333333333,2023-10-01,7,9,8.0,359,2023-Q4,1.44970819589157,103.815865172184,359 ADMIRALTY DRIVE SUN BLISS SINGAPORE 750359,3.561391662433206,Woodlands,NS/TE,0,0,18.944096588891217,16.274053133883108,21.706228146246673,17.581012981470476,15.271937732620678,North,0
110908,2021-10,SENGKANG,5 ROOM,200B,SENGKANG EAST RD,01 TO 03,110.0,Improved,2001,78 years 08 months,480000.0,2021,4,24,4363.636363636364,2021-10-01,1,3,2.0,200,2021-Q4,1.3870653779354,103.892735553222,200B SENGKANG EAST ROAD COMPASSVALE SOUTH GATE SINGAPORE 542200,0.6239567138185227,Sengkang,NE,0,1,12.46698618857858,11.381292573565684,11.264497497553181,16.384005944877586,17.638603854528025,Northeast,0
59708,2019-10,SENGKANG,4 ROOM,406C,FERNVALE RD,10 TO 12,90.0,Premium Apartment,2004,84 years 03 months,370000.0,2019,4,21,4111.111111111111,2019-10-01,10,12,11.0,406,2019-Q4,1.38867904803847,103.874702601249,406C FERNVALE ROAD FERN VIEW SINGAPORE 793406,2.380172510022797,Sengkang,NE,0,0,12.042759128584958,10.490049178581938,13.261239432636335,14.974883354544623,15.838740346733262,Northeast,0
144563,2023-01,BEDOK,5 ROOM,770,BEDOK RESERVOIR VIEW,10 TO 12,115.0,Premium Apartment,2000,77 years,715000.0,2023,1,25,6217.391304347826,2023-01-01,10,12,11.0,770,2023-Q1,1.33592504234068,103.938460933366,770 BEDOK RESERVOIR VIEW LONGVALE SINGAPORE 470770,1.5941992748391727,Bedok,EW,0,0,11.365013443482049,12.29290122368245,6.692423399147772,18.53868062078808,21.664282471670667,East,1
196956,2024-08,YISHUN,EXECUTIVE,643,YISHUN ST 61,01 TO 03,146.0,Maisonette,1987,62 years 03 months,770000.0,2024,3,38,5273.972602739726,2024-08-01,1,3,2.0,643,2024-Q3,1.42133515867973,103.837436986724,643 YISHUN STREET 61 SINGAPORE 760643,5.866151176574462,Ang Mo Kio,NS,0,0,15.455882384549962,13.025282963234186,18.258666744633015,15.440598395550094,14.335553282237345,North,0
98837,2021-05,WOODLANDS,4 ROOM,890A,WOODLANDS DR 50,10 TO 12,93.0,Model A,2017,95 years 03 months,492000.0,2021,2,8,5290.322580645161,2021-05-01,10,12,11.0,890,2021-Q2,1.43828221158378,103.793216471148,890A WOODLANDS DRIVE 50 TREETRAIL@WOODLANDS SINGAPORE 731890,0.7622580527895589,Woodlands,NS/TE,0,1,18.42269301316037,15.524955921110838,23.522765542729964,15.864863179239265,12.951113546399416,North,0
186151,2024-10,QUEENSTOWN,3 ROOM,50,C'WEALTH DR,07 TO 09,63.0,Model A,2015,89 years 06 months,692000.0,2024,4,10,10984.126984126984,2024-10-01,7,9,8.0,50,2024-Q4,1.36313701997636,103.859694287694,50 BERWICK DRIVE SINGAPORE 559929,1.3570209181435196,Ang Mo Kio,NS,0,0,8.963092105710881,7.207047074767546,14.65264802994,11.852239844747688,13.336301364303413,Central,1
61588,2019-11,QUEENSTOWN,4 ROOM,12,HOLLAND AVE,22 TO 24,88.0,Improved,1975,54 years 02 months,566888.0,2019,4,50,6441.909090909091,2019-11-01,22,24,23.0,12,2019-Q4,1.30935284651406,103.794873297267,12 HOLLAND AVENUE HOLLAND VISTA SINGAPORE 272012,0.56190137419699,Buona Vista,EW/CC,0,1,6.8932490062622405,4.22037648944896,22.69880450614483,2.4956297289793934,6.272440586711357,Central,1
56713,2019-09,BUKIT BATOK,4 ROOM,219,BT BATOK ST 21,10 TO 12,93.0,New Generation,1985,64 years 06 months,337000.0,2019,3,40,3623.655913978496,2019-09-01,10,12,11.0,219,2019-Q3,1.34720729813155,103.754999726682,219 BUKIT BATOK STREET 21 SINGAPORE 650219,2.126975053400899,Jurong East,NS/EW,0,0,12.839896415551237,9.848200827530098,26.359684216563455,6.109477274938009,2.03392960451436,West,0
129943,2022-01,PASIR RIS,4 ROOM,530C,PASIR RIS DR 1,04 TO 06,86.0,DBSS,2015,92 years 05 months,632000.0,2022,1,10,7348.837209302325,2022-01-01,4,6,5.0,530,2022-Q1,1.37162618190542,103.950113871559,530C PASIR RIS DRIVE 1 LITTLE PRESCHOOL PTE. LTD SINGAPORE 513530,1.9450942952143548,Tampines,EW/DT,0,0,14.782187928633414,15.066109986654586,4.670257179306716,21.03585692844819,23.35727262621134,East,1
15185,2017-10,ANG MO KIO,3 ROOM,433,ANG MO KIO AVE 10,07 TO 09,67.0,New Generation,1979,60 years 03 months,297500.0,2017,4,46,4440.298507462687,2017-10-01,7,9,8.0,433,2017-Q4,1.36807652285135,103.854353042615,433 ANG MO KIO AVENUE 10 CHONG BOON RISE SINGAPORE 560433,0.5700112967210192,Ang Mo Kio,NS,0,1,9.467418162540827,7.49617166056503,15.251190574662658,11.758454250582195,12.918156621393944,Northeast,1
25088,2018-04,BUKIT PANJANG,4 ROOM,602,SENJA RD,07 TO 09,91.0,Model A2,1999,79 years 11 months,420000.0,2018,2,26,4615.384615384615,2018-04-01,7,9,8.0,602,2018-Q2,1.38141822253802,103.762739370664,602 SENJA ROAD SINGAPORE 670602,5.853915407871591,Jurong East,NS/EW,0,0,14.69788008147326,11.561648394743358,25.50003066444536,9.55282968570853,5.799354226757093,West,0
9221,2017-06,SENGKANG,4 ROOM,212B,COMPASSVALE DR,13 TO 15,99.0,Premium Apartment,2012,94 years 04 months,450000.0,2017,2,13,4545.454545454545,2017-06-01,13,15,14.0,212,2017-Q2,1.38618514540465,103.900551157406,212B COMPASSVALE DRIVE COMPASSVALE PEARL SINGAPORE 542212,0.8021014720083451,Sengkang,NE,0,1,12.727403963995096,11.83773474639183,10.396291261916314,17.02065586836145,18.425876258867692,Northeast,0
77190,2020-08,SENGKANG,5 ROOM,268A,COMPASSVALE LINK,07 TO 09,110.0,Premium Apartment,2006,84 years 06 months,535000.0,2020,3,19,4863.636363636364,2020-08-01,7,9,8.0,268,2020-Q3,1.38416869382668,103.896647916276,268A COMPASSVALE LINK COMPASSVALE ARCADIA SINGAPORE 541268,0.8415599304760518,Sengkang,NE,0,1,12.340987696114983,11.389584118099418,10.770733349323194,16.537763405185704,17.943076964223522,Northeast,0
113199,2021-11,PUNGGOL,5 ROOM,265A,PUNGGOL WAY,04 TO 06,112.0,Improved,2015,92 years 08 months,638000.0,2021,4,10,5696.428571428572,2021-11-01,4,6,5.0,265,2021-Q4,1.40566686857539,103.898715616217,265A PUNGGOL WAY PUNGGOL EMERALD SINGAPORE 821265,0.38059742431938665,Punggol,NE,1,1,14.634995635399815,13.462072264872454,11.288813366569629,18.219813469027596,19.04718423627194,Northeast,0
66738,2020-02,HOUGANG,4 ROOM,413,HOUGANG AVE 10,10 TO 12,91.0,New Generation,1986,65 years 02 months,400000.0,2020,1,39,4395.604395604396,2020-02-01,10,12,11.0,413,2020-Q1,1.37450179829607,103.895709633695,413 HOUGANG AVENUE 10 HARMONY VIEW SINGAPORE 530413,1.9124698576928938,Sengkang,NE,0,0,11.32358333923286,10.502810669862704,10.707441917458953,15.841177392579079,17.53044923160828,Northeast,0
12198,2017-08,HOUGANG,4 ROOM,540,HOUGANG AVE 8,10 TO 12,104.0,Model A,1989,71 years 04 months,390000.0,2017,3,36,3750.0,2017-08-01,10,12,11.0,540,2017-Q3,1.37781568057175,103.891282467147,540 HOUGANG AVENUE 8 SINGAPORE 530540,1.6269587957595604,Sengkang,NE,0,0,11.454597006957092,10.46535118724191,11.239922809991157,15.641288123145737,17.15984019163615,Northeast,0
49916,2019-05,SENGKANG,4 ROOM,430B,FERNVALE LINK,10 TO 12,92.0,Model A,2015,95 years 01 month,420000.0,2019,2,10,4565.217391304348,2019-05-01,10,12,11.0,430,2019-Q2,1.39390769406304,103.8782232872,430B FERNVALE LINK FERNVALE RIDGE SINGAPORE 792430,1.980254835339563,Sengkang,NE,0,0,12.698255845718865,11.18545715950771,13.01260222058335,15.658777422550687,16.430948187859567,Northeast,0
147901,2023-05,BUKIT MERAH,4 ROOM,13,JLN BT MERAH,07 TO 09,106.0,Model A,1996,72 years 07 months,750000.0,2023,2,29,7075.471698113208,2023-05-01,7,9,8.0,13,2023-Q2,1.28771895880048,103.807280589371,13 JALAN BUKIT MERAH SINGAPORE 150013,2.8492097494191424,Buona Vista,EW/CC,0,0,4.888397151139605,3.3554793803312215,22.18292615490419,3.572107821545193,8.680630647039827,Central,1
177182,2024-06,CLEMENTI,3 ROOM,307,CLEMENTI AVE 4,07 TO 09,67.0,New Generation,1979,54 years 06 months,400000.0,2024,2,46,5970.149253731343,2024-06-01,7,9,8.0,307,2024-Q2,1.321415896635,103.76710548935,307 CLEMENTI AVENUE 4 CLEMENTI MEADOWS SINGAPORE 120307,3.0388311160525165,Jurong East,NS/EW,0,0,10.257956322535945,7.5146309768519,25.398457425938208,2.9465010024132843,2.908329334609091,West,1
39435,2018-11,HOUGANG,4 ROOM,516,HOUGANG AVE 10,07 TO 09,103.0,Model A,1986,66 years 10 months,420000.0,2018,4,39,4077.669902912621,2018-11-01,7,9,8.0,516,2018-Q4,1.37274640086423,103.88904248743,516 HOUGANG AVENUE 10 BEDOK RESERVOIR - PUNGGOL VALE SINGAPORE 530516,2.2411696360372613,Sengkang,NE,0,0,10.838436977339104,9.870839318840446,11.427255471644298,15.115852655233422,16.764073020889253,Northeast,0
83496,2020-11,CLEMENTI,EXECUTIVE,201,CLEMENTI AVE 6,04 TO 06,150.0,Maisonette,1985,63 years 07 months,820000.0,2020,4,40,5466.666666666667,2020-11-01,4,6,5.0,201,2020-Q4,1.32014419030202,103.763253531405,201 CLEMENTI AVENUE 6 SINGAPORE 120201,2.7271694510356133,Jurong East,NS/EW,0,0,10.592833250836577,7.896873170333248,25.84569049269967,2.998282946436976,2.6048226660117377,West,1
64442,2020-01,BEDOK,5 ROOM,805,CHAI CHEE RD,04 TO 06,126.0,Improved,1993,72 years 04 months,610000.0,2020,1,32,4841.269841269841,2020-01-01,4,6,5.0,805,2020-Q1,1.32430604941035,103.921625366639,805 CHAI CHEE ROAD PING-AN GARDENS SINGAPORE 460805,0.9871374623255567,Bedok,EW,0,1,9.09595576340145,10.154352062221067,8.956060476611079,16.43542306288861,19.813253764739393,East,1
73665,2020-07,CHOA CHU KANG,5 ROOM,550,CHOA CHU KANG ST 52,01 TO 03,124.0,Improved,1994,72 years 10 months,420000.0,2020,3,31,3387.0967741935483,2020-07-01,1,3,2.0,550,2020-Q3,1.39401069858338,103.742692606674,550 CHOA CHU KANG STREET 52 SINGAPORE 680550,6.795339799243741,Jurong East,NS/EW,0,0,17.243268790062395,14.112955629079577,27.853396335039715,11.46139030294371,6.795948261940763,West,0
182035,2024-07,JURONG WEST,5 ROOM,989C,JURONG WEST ST 93,07 TO 09,110.0,Premium Apartment,2008,83 years 02 months,610000.0,2024,3,17,5545.454545454545,2024-07-01,7,9,8.0,989,2024-Q3,1.33580169821898,103.695145055144,989C JURONG WEST STREET 93 SINGAPORE 643989,5.251889401462113,Jurong East,NS/EW,0,0,18.2935415441922,15.665753096062758,33.09713917557549,10.02954531874072,5.396137928932815,West,0
3983,2017-03,WOODLANDS,4 ROOM,643,WOODLANDS RING RD,10 TO 12,100.0,Model A,1998,80 years 04 months,370000.0,2017,1,27,3700.0,2017-03-01,10,12,11.0,643,2017-Q1,1.437696282095,103.801568874084,643 WOODLANDS RING ROAD SINGAPORE 730643,1.677393688495623,Woodlands,NS/TE,0,0,18.057794972031775,15.226298745422511,22.631543265487803,15.936708927095868,13.315882007373771,North,0
197081,2025-02,ANG MO KIO,3 ROOM,127,ANG MO KIO AVE 3,10 TO 12,82.0,New Generation,1978,52 years 07 months,475000.0,2025,1,47,5792.682926829269,2025-02-01,10,12,11.0,127,2025-Q1,1.37122322102767,103.843593321222,127 ANG MO KIO AVENUE 3 SINGAPORE 560127,0.6814336543224566,Ang Mo Kio,NS,0,1,9.844466969636601,7.543010277640888,16.45928199396521,11.164502333368834,11.904488724562334,Northeast,1
186974,2024-07,SEMBAWANG,4 ROOM,469B,ADMIRALTY DR,13 TO 15,102.0,Premium Apartment,2001,76 years 02 months,530000.0,2024,3,24,5196.078431372549,2024-07-01,13,15,14.0,469,2024-Q3,1.44826812204429,103.813348364213,469B ADMIRALTY DRIVE BLUE RIVERVIEW SINGAPORE 752469,3.2411213489101596,Woodlands,NS/TE,0,0,18.84758652794574,16.14946725736677,21.889518285498482,17.35767297745454,14.989377687673466,North,0
239,2017-01,BUKIT MERAH,4 ROOM,77A,REDHILL RD,19 TO 21,90.0,Model A,2005,87 years 10 months,722000.0,2017,1,20,8022.222222222223,2017-01-01,19,21,20.0,77,2017-Q1,1.28838106670584,103.817391094217,77A REDHILL ROAD SINGAPORE 151077,2.4401514002977165,Orchard,NS,0,0,3.7838078995501614,2.4401514002977165,21.120170705245535,4.6475831676640675,9.580984875703109,Central,1
61528,2019-11,PUNGGOL,5 ROOM,106D,PUNGGOL FIELD,13 TO 15,110.0,Improved,2003,82 years 03 months,438000.0,2019,4,22,3981.818181818182,2019-11-01,13,15,14.0,106,2019-Q4,1.39762606734892,103.907358127148,106D PUNGGOL FIELD SINGAPORE 824106,0.9866498437662179,Punggol,NE,0,1,14.202354298309807,13.30180339597672,10.056665983225074,18.38816291393525,19.57503285973925,Northeast,0
97747,2021-05,HOUGANG,5 ROOM,473D,UPP SERANGOON CRES,07 TO 09,113.0,Improved,2017,95 years 01 month,630000.0,2021,2,8,5575.221238938053,2021-05-01,7,9,8.0,473,2021-Q2,1.37667371760412,103.901954069082,473D UPPER SERANGOON CRESCENT HOUGANG PARKEDGE SINGAPORE 538473,1.8012875503684265,Sengkang,NE,0,0,11.856572499703214,11.152347881268707,10.047328120124124,16.555369108137846,18.26378978669732,Northeast,0
75465,2020-08,ANG MO KIO,3 ROOM,202,ANG MO KIO AVE 3,04 TO 06,67.0,New Generation,1977,55 years 09 months,270000.0,2020,3,48,4029.8507462686566,2020-08-01,4,6,5.0,202,2020-Q3,1.36844644010937,103.844516260527,202 ANG MO KIO AVENUE 3 ANG MO KIO VIEW SINGAPORE 560202,0.5909379940941556,Ang Mo Kio,NS,0,1,9.528510223809956,7.256759940586467,16.34539254856624,11.007301509746753,11.894210161672133,Northeast,1
193623,2024-06,WOODLANDS,4 ROOM,741,WOODLANDS CIRCLE,04 TO 06,100.0,Model A,1997,72 years 02 months,515000.0,2024,2,28,5150.0,2024-06-01,4,6,5.0,741,2024-Q2,1.44441190731037,103.795827945234,741 WOODLANDS CIRCLE SINGAPORE 730741,1.331483518037972,Woodlands,NS/TE,0,0,18.96714069610318,16.10423951885563,23.500424416122158,16.57721655715435,13.691460199858444,North,0
27435,2018-05,PUNGGOL,4 ROOM,619C,PUNGGOL DR,07 TO 09,93.0,Premium Apartment,2013,94 years 04 months,445000.0,2018,2,12,4784.94623655914,2018-05-01,7,9,8.0,619,2018-Q2,1.40239328837618,103.910696806603,619C PUNGGOL DRIVE PUNGGOL BREEZE SINGAPORE 823619,1.0001981242959936,Punggol,NE,0,0,14.842131197218135,13.947594743456893,9.926188809031766,19.00680207812019,20.118217134676577,Northeast,0
41229,2018-12,JURONG WEST,3 ROOM,524,JURONG WEST ST 52,07 TO 09,67.0,New Generation,1982,62 years 04 months,264000.0,2018,4,43,3940.298507462687,2018-12-01,7,9,8.0,524,2018-Q4,1.3471976255018,103.717246730837,524 JURONG WEST STREET 52 SINGAPORE 640524,3.2068607393841577,Jurong East,NS/EW,0,0,16.493565220729412,13.671284461946538,30.546982507354908,8.654199423602797,3.3331355049237303,West,0
185412,2024-04,PUNGGOL,5 ROOM,132,EDGEDALE PLAINS,07 TO 09,111.0,Premium Apartment,2003,78 years 08 months,588000.0,2024,2,22,5297.2972972972975,2024-04-01,7,9,8.0,132,2024-Q2,1.3930694988303,103.910698497279,132 EDGEDALE PLAINS SINGAPORE 820132,1.6147682603198348,Punggol,NE,0,0,13.922590953769785,13.152832365012257,9.531061346641616,18.383353699677794,19.743433718072005,Northeast,0
37853,2018-10,PASIR RIS,EXECUTIVE,531,PASIR RIS DR 1,04 TO 06,148.0,Maisonette,1992,73 years 02 months,750000.0,2018,4,33,5067.567567567568,2018-10-01,4,6,5.0,531,2018-Q4,1.37136157858945,103.950398439602,531 PASIR RIS DRIVE 1 SINGAPORE 510531,1.924079193138994,Tampines,EW/DT,0,0,14.786214578985877,15.078999173659662,4.634093297759154,21.05326635563369,23.38296680199952,East,1
41632,2018-12,SENGKANG,4 ROOM,410B,FERNVALE RD,07 TO 09,95.0,Premium Apartment,2012,92 years 11 months,405000.0,2018,4,13,4263.1578947368425,2018-12-01,7,9,8.0,410,2018-Q4,1.38978938889476,103.876096713603,410B FERNVALE ROAD CORAL SPRING SINGAPORE 792410,2.21160412044772,Sengkang,NE,0,0,12.197772183274243,10.670112618980529,13.13552753232975,15.172397255963185,16.02977033039791,Northeast,0
99861,2021-06,JURONG EAST,5 ROOM,407,PANDAN GDNS,01 TO 03,104.0,Standard,1979,56 years 11 months,400000.0,2021,2,46,3846.153846153846,2021-06-01,1,3,2.0,407,2021-Q2,1.31889048230784,103.748627513117,407 PANDAN GARDENS SINGAPORE 600407,1.709231219402382,Jurong East,NS/EW,0,0,12.059832004960123,9.463851428366997,27.468932731451638,3.9591872491774183,1.6550084218364804,West,0
203678,2025-02,TAMPINES,4 ROOM,610B,TAMPINES NTH DR 1,13 TO 15,93.0,Model A,2020,94 years 09 months,775000.0,2025,1,5,8333.333333333334,2025-02-01,13,15,14.0,610,2025-Q1,1.3644178163568,103.936006719423,610B TAMPINES NORTH DRIVE 1 TAMPINES GREENWEAVE SINGAPORE 522610,1.5654669464016722,Tampines,EW/DT,0,0,13.086629916589725,13.307195440440015,6.168822061927448,19.27871957575708,21.673944892866803,East,0
17249,2017-11,BUKIT BATOK,4 ROOM,131,BT BATOK WEST AVE 6,10 TO 12,103.0,Model A,1984,66 years 01 month,450000.0,2017,4,41,4368.932038834952,2017-11-01,10,12,11.0,131,2017-Q4,1.35073333041497,103.746261338468,131 BUKIT BATOK WEST AVENUE 6 SINGAPORE 650131,2.0312828896608903,Jurong East,NS/EW,0,0,13.866946290381106,10.888685496591698,27.303963680215436,6.888946691968597,2.0049235039333997,West,0
101034,2021-06,WOODLANDS,3 ROOM,24,MARSILING DR,13 TO 15,67.0,New Generation,1977,55 years,265000.0,2021,2,48,3955.223880597015,2021-06-01,13,15,14.0,24,2021-Q2,1.44150533051525,103.77213161946,24 MARSILING DRIVE MARSILING GREEN SINGAPORE 730024,1.6772721568555673,Woodlands,NS/TE,0,0,19.68515845735816,16.66720718595988,25.8486626103146,16.119722406151954,12.485904864284782,North,0
13614,2017-09,BEDOK,4 ROOM,119,BEDOK NTH RD,07 TO 09,92.0,New Generation,1978,59 years 06 months,430000.0,2017,3,47,4673.913043478261,2017-09-01,7,9,8.0,119,2017-Q3,1.33018552011132,103.938716613648,119 BEDOK NORTH ROAD SINGAPORE 460119,1.1434017334778306,Bedok,EW,0,0,11.07307006068221,12.153390280102066,6.9930702147060595,18.426454693599684,21.692218976163687,East,1
86692,2020-12,QUEENSTOWN,4 ROOM,92,DAWSON RD,07 TO 09,87.0,Premium Apartment,2016,94 years 05 months,790000.0,2020,4,9,9080.459770114943,2020-12-01,7,9,8.0,92,2020-Q4,1.29512086158743,103.81115001607,92 DAWSON ROAD SKYTERRACE @ DAWSON SINGAPORE 141092,2.5835630473385596,Orchard,NS,0,0,4.63048147554884,2.5835630473385596,21.47766633366065,3.8665369566982686,8.604409902383424,Central,1
119686,2022-03,BUKIT BATOK,3 ROOM,504,BT BATOK ST 52,07 TO 09,69.0,Improved,1988,64 years 11 months,365000.0,2022,1,37,5289.855072463768,2022-03-01,7,9,8.0,504,2022-Q1,1.35196560331027,103.754983672501,504 BUKIT BATOK STREET 52 HILLGROVE GARDENS SINGAPORE 650504,2.546059055723081,Jurong East,NS/EW,0,0,13.142899203328101,10.116637820977983,26.328356940321004,6.600675549839524,2.4689633536736775,West,0
76860,2020-08,PUNGGOL,5 ROOM,196C,PUNGGOL FIELD,07 TO 09,110.0,Improved,2003,81 years 10 months,440000.0,2020,3,22,4000.0,2020-08-01,7,9,8.0,196,2020-Q3,1.39927958510349,103.907497649822,196C PUNGGOL FIELD SINGAPORE 823196,0.8583424283794102,Punggol,NE,0,1,14.374359028454132,13.45533848926709,10.111328586376677,18.513262669808594,19.657746658396874,Northeast,0
162621,2023-04,SERANGOON,4 ROOM,419,SERANGOON CTRL,07 TO 09,95.0,New Generation,1989,65 years 02 months,628888.0,2023,2,36,6619.873684210526,2023-04-01,7,9,8.0,419,2023-Q2,1.34920192004095,103.875859701938,419 SERANGOON CENTRAL SINGAPORE 550419,0.39005132081151095,Serangoon,NE/CC,1,1,7.8629618641261425,6.939880310206908,12.96561570754206,12.508278195616974,14.8139021117068,Northeast,1
197866,2025-04,BUKIT BATOK,2 ROOM,438C,BT BATOK WEST AVE 8,04 TO 06,47.0,Model A,2020,93 years 10 months,385000.0,2025,2,5,8191.489361702128,2025-04-01,4,6,5.0,438,2025-Q2,1.35775731757846,103.739408616622,438C BUKIT BATOK WEST AVENUE 8 WEST EDGE @ BUKIT BATOK SINGAPORE 653438,2.7826332697939806,Jurong East,NS/EW,0,0,14.932729142031446,11.934181085011678,28.03310664647139,7.947011821007485,2.8030038805126516,West,0
115297,2021-12,JURONG WEST,5 ROOM,661B,JURONG WEST ST 64,10 TO 12,110.0,Improved,2001,78 years 09 months,590000.0,2021,4,24,5363.636363636364,2021-12-01,10,12,11.0,661,2021-Q4,1.33599339068682,103.705617495141,661B JURONG WEST STREET 64 SINGAPORE 642661,4.092283668325745,Jurong East,NS/EW,0,0,17.20230154536941,14.538538024071762,31.936445552854195,9.005662054713229,4.236303886620443,West,0
80792,2020-10,BUKIT PANJANG,3 ROOM,443A,FAJAR RD,13 TO 15,68.0,Model A,2016,95 years 02 months,338000.0,2020,4,9,4970.588235294118,2020-10-01,13,15,14.0,443,2020-Q4,1.38146636369732,103.769766736479,443A FAJAR ROAD FAJAR HILLS SINGAPORE 671443,6.2037303145798415,Jurong East,NS/EW,0,0,14.192454202447147,11.057019084188491,24.721479590063087,9.465474799931167,6.133895190778078,West,0
84950,2020-11,WOODLANDS,5 ROOM,555,WOODLANDS DR 53,04 TO 06,120.0,Improved,1999,78 years 02 months,435000.0,2020,4,26,3625.0,2020-11-01,4,6,5.0,555,2020-Q4,1.43228169943574,103.795797044364,555 WOODLANDS DRIVE 53 SINGAPORE 730555,1.1540167002115849,Woodlands,NS/TE,0,0,17.697356288745123,14.804239498330912,23.0269522989186,15.240421990742039,12.481434508855886,North,0
137808,2022-06,TAMPINES,EXECUTIVE,867A,TAMPINES ST 83,07 TO 09,149.0,Maisonette,1989,65 years 08 months,852000.0,2022,2,36,5718.120805369127,2022-06-01,7,9,8.0,867,2022-Q2,1.35570643617712,103.933753485939,867A TAMPINES STREET 83 PCF SPARKLETOTS PRESCHOOL @ TAMPINES CENTRAL 867A (CC) SINGAPORE 521867,1.3779889401259546,Tampines,EW/DT,0,0,12.246965921526526,12.624109463538716,6.491688307593977,18.686182819951068,21.289859353532236,East,0
92350,2021-03,BEDOK,3 ROOM,102,BEDOK NTH AVE 4,04 TO 06,67.0,New Generation,1977,55 years 05 months,295000.0,2021,1,48,4402.985074626866,2021-03-01,4,6,5.0,102,2021-Q1,1.33390654765002,103.937458398204,102 BEDOK NORTH AVENUE 4 PEARL GARDEN SINGAPORE 460102,1.3460234162688547,Bedok,EW,0,0,11.154260671349032,12.123294122741052,6.8983223509897975,18.378445515254693,21.550523892282325,East,1
143075,2022-11,YISHUN,3 ROOM,114,YISHUN RING RD,04 TO 06,74.0,Model A,1983,59 years 09 months,348000.0,2022,4,42,4702.702702702703,2022-11-01,4,6,5.0,114,2022-Q4,1.43413792566359,103.827020312888,114 YISHUN RING ROAD CHONG PANG VALE SINGAPORE 760114,4.514698009891298,Woodlands,NS/TE,0,0,17.015866609884807,14.450163307622653,19.860301112545,16.295896657478888,14.58477673323753,North,0
198722,2025-01,BUKIT PANJANG,4 ROOM,110,GANGSA RD,10 TO 12,83.0,Simplified,1987,62 years,470000.0,2025,1,38,5662.650602409639,2025-01-01,10,12,11.0,110,2025-Q1,1.3778637208368,103.768139168585,110 GANGSA ROAD SINGAPORE 670110,5.766103208782121,Jurong East,NS/EW,0,0,14.00409053799016,10.867373268932965,24.874572727261203,9.082656233534447,5.695492762771988,West,0
94330,2021-03,TOA PAYOH,3 ROOM,174,LOR 1 TOA PAYOH,07 TO 09,76.0,Improved,1972,50 years 04 months,300000.0,2021,1,53,3947.368421052632,2021-03-01,7,9,8.0,174,2021-Q1,1.3306720968474,103.84191793174,174 LORONG 1 TOA PAYOH TOA PAYOH GREEN SINGAPORE 310174,2.414445287422848,Bishan,NS/CC,0,0,5.396185506402286,3.113732026903259,17.045856506517776,8.20980915647349,10.932309233184448,Central,1
27092,2018-05,HOUGANG,5 ROOM,979C,BUANGKOK CRES,07 TO 09,110.0,Improved,2003,84 years 02 months,421888.0,2018,2,22,3835.345454545455,2018-05-01,7,9,8.0,979,2018-Q2,1.37953890851806,103.87995444753,979C BUANGKOK CRESCENT SINGAPORE 533979,2.229462754524659,Sengkang,NE,0,0,11.206809336832455,9.89046374697375,12.513487880364979,14.750222562552432,16.020293744198103,Northeast,0
161339,2023-05,SENGKANG,4 ROOM,277C,COMPASSVALE LINK,07 TO 09,90.0,Premium Apartment,2009,85 years 02 months,730000.0,2023,2,16,8111.111111111111,2023-05-01,7,9,8.0,277,2023-Q2,1.38233698966981,103.893607838756,277C COMPASSVALE LINK ASPELLA SINGAPORE 543277,1.0718457709159415,Sengkang,NE,0,0,12.018460328016507,11.020021381348318,11.063255924504984,16.14472202100848,17.558145336345515,Northeast,0
131836,2022-07,PUNGGOL,4 ROOM,266B,PUNGGOL WAY,13 TO 15,92.0,Model A,2015,91 years 11 months,610000.0,2022,3,10,6630.434782608696,2022-07-01,13,15,14.0,266,2022-Q3,1.40557473862472,103.897925654424,266B PUNGGOL WAY PUNGGOL EMERALD SINGAPORE 822266,0.46323701618925683,Punggol,NE,1,1,14.593829315703603,13.405651530792255,11.364970949549496,18.147530944547814,18.963356055868726,Northeast,0
4033,2017-03,WOODLANDS,5 ROOM,711,WOODLANDS DR 70,04 TO 06,121.0,Improved,1997,79 years,425000.0,2017,1,28,3512.396694214876,2017-03-01,4,6,5.0,711,2017-Q1,1.44122296569404,103.797378360624,711 WOODLANDS DRIVE 70 ADMIRALTY CLOVER SINGAPORE 730711,1.3012758264496662,Woodlands,NS/TE,0,0,18.575930558920568,15.71775570966831,23.208165608940313,16.249548290707967,13.44690204642152,North,0
42503,2019-01,CHOA CHU KANG,5 ROOM,504,CHOA CHU KANG ST 51,10 TO 12,123.0,Improved,1995,75 years 02 months,412000.0,2019,1,30,3349.59349593496,2019-01-01,10,12,11.0,504,2019-Q1,1.3891663147976,103.742676142012,504 CHOA CHU KANG STREET 51 SINGAPORE 680504,6.256668467008134,Jurong East,NS/EW,0,0,16.863164922772935,13.738833410376639,27.796716518218513,10.95436318993239,6.257371581494176,West,0
164887,2023-06,TOA PAYOH,4 ROOM,246,KIM KEAT LINK,07 TO 09,104.0,Model A,1989,64 years 10 months,623000.0,2023,2,36,5990.384615384615,2023-06-01,7,9,8.0,246,2023-Q2,1.33078082665669,103.855844268285,246 KIM KEAT LINK SINGAPORE 310246,2.415897775351877,Bishan,NS/CC,0,0,5.340207546143099,3.9248830936955987,15.536501070698904,9.61460238371976,12.479846258975316,Central,1
8525,2017-06,CLEMENTI,4 ROOM,420,CLEMENTI AVE 1,22 TO 24,96.0,Model A,2013,95 years 03 months,710000.0,2017,2,12,7395.833333333333,2017-06-01,22,24,23.0,420,2017-Q2,1.31004548976462,103.769123845594,420 CLEMENTI AVENUE 1 CASA CLEMENTI SINGAPORE 120420,2.3893036637169067,Buona Vista,EW/CC,0,0,9.585835302729588,7.074180117544167,25.448491674158202,1.6998508783524153,3.809053320166127,West,1
16297,2017-10,QUEENSTOWN,3 ROOM,2,GHIM MOH RD,04 TO 06,76.0,Improved,1976,57 years 09 months,391000.0,2017,4,49,5144.736842105263,2017-10-01,4,6,5.0,2,2017-Q4,1.31090601753044,103.789421705472,150A GHIM MOH ROAD GHIM MOH BUS TERMINAL SINGAPORE 279624,0.4477378527021244,Buona Vista,EW/CC,1,1,7.515896552643388,4.844849270777017,23.238139947868248,2.1508075916092033,5.650460219275218,Central,1
130298,2022-06,PASIR RIS,EXECUTIVE,248,PASIR RIS ST 21,04 TO 06,147.0,Apartment,1993,70 years 02 months,720000.0,2022,2,32,4897.959183673469,2022-06-01,4,6,5.0,248,2022-Q2,1.37060375736955,103.96301959535,248 PASIR RIS STREET 21 SINGAPORE 510248,2.589269016679471,Tampines,EW/DT,0,0,15.810056504640324,16.274877206491222,3.2402554145942615,22.31794926713994,24.749237499325076,East,1
167398,2023-01,YISHUN,3 ROOM,342B,YISHUN RING RD,13 TO 15,68.0,Premium Apartment,2016,92 years 01 month,423000.0,2023,1,9,6220.588235294118,2023-01-01,13,15,14.0,342,2023-Q1,1.43024596089696,103.844838329615,342B YISHUN RING ROAD YISHUN NATURA SINGAPORE 762342,6.526968653021579,Woodlands,NS/TE,0,0,16.387324871288246,14.071555504146234,17.8718106003565,16.694944908062485,15.61466408822031,North,0
2423,2017-03,BEDOK,4 ROOM,404,BEDOK NTH AVE 3,04 TO 06,92.0,New Generation,1980,62 years 01 month,410000.0,2017,1,45,4456.521739130435,2017-03-01,4,6,5.0,404,2017-Q1,1.32937492395032,103.933926939087,404 BEDOK NORTH AVENUE 3 RAINBOW VILLE SINGAPORE 460404,0.708752515594608,Bedok,EW,0,1,10.562895918268236,11.614810426992157,7.491915955776627,17.88680309073576,21.16130924842257,East,1
136921,2022-11,SERANGOON,3 ROOM,1,LOR LEW LIAN,01 TO 03,64.0,Improved,1978,54 years 07 months,368000.0,2022,4,47,5750.0,2022-11-01,1,3,2.0,1,2022-Q4,1.34959828680829,103.877939060572,348 LORONG LEW LIAN SINGAPORE 536487,0.6019213701618968,Serangoon,NE/CC,0,1,7.987992896020056,7.133425947592344,12.730699851158118,12.733397802359224,15.048715687579795,Northeast,1
30390,2018-07,BEDOK,4 ROOM,651,JLN TENAGA,01 TO 03,108.0,Model A,1996,77 years 04 months,400000.0,2018,3,29,3703.703703703704,2018-07-01,1,3,2.0,651,2018-Q3,1.3321924321125,103.907363528438,651 JALAN TENAGA EUNOS DAMAI VILLE SINGAPORE 410651,2.2933806721916623,Paya Lebar,EW/CC,0,0,8.317416329013422,8.881384072822666,10.015172008979707,15.087001146017663,18.204918933648294,East,1
130453,2022-08,PASIR RIS,EXECUTIVE,101,PASIR RIS ST 12,04 TO 06,146.0,Maisonette,1988,65 years 04 months,825000.0,2022,3,37,5650.684931506849,2022-08-01,4,6,5.0,101,2022-Q3,1.36705021516612,103.958181857039,101 PASIR RIS STREET 12 SINGAPORE 510101,1.9288291310841201,Tampines,EW/DT,0,0,15.143036191678043,15.616825470048772,3.715461097327092,21.673035298166507,24.15415194161709,East,1
39459,2018-11,HOUGANG,EXECUTIVE,961,HOUGANG AVE 9,07 TO 09,137.0,Apartment,1999,79 years 09 months,600000.0,2018,4,26,4379.56204379562,2018-11-01,7,9,8.0,961,2018-Q4,1.37775216619067,103.87866526567,961 HOUGANG AVENUE 9 SINGAPORE 530961,2.4649301261045666,Sengkang,NE,0,0,10.975636138140702,9.645981963530923,12.630622046607627,14.514308183233823,15.82102424520601,Northeast,0
17840,2017-11,JURONG WEST,5 ROOM,825,JURONG WEST ST 81,04 TO 06,129.0,Improved,1993,75 years 01 month,400000.0,2017,4,32,3100.775193798449,2017-11-01,4,6,5.0,825,2017-Q4,1.34619009117105,103.693228518914,825 JURONG WEST STREET 81 SINGAPORE 640825,5.651635471725667,Jurong East,NS/EW,0,0,18.893887733149814,16.167661717627862,33.21876675457713,10.765250149472045,5.791244847594238,West,0
126561,2022-12,HOUGANG,4 ROOM,985A,BUANGKOK CRES,04 TO 06,85.0,Model A2,2004,80 years 04 months,463800.0,2022,4,21,5456.470588235294,2022-12-01,4,6,5.0,985,2022-Q4,1.38119524848792,103.880066269687,985A BUANGKOK CRESCENT SINGAPORE 531985,2.112440371531212,Sengkang,NE,0,0,11.386869791726788,10.053267627709056,12.52729630957054,14.875696262870395,16.092571245364883,Northeast,0
12442,2017-08,JURONG WEST,5 ROOM,989A,JURONG WEST ST 93,16 TO 18,110.0,Premium Apartment,2008,90 years 01 month,522000.0,2017,3,17,4745.454545454545,2017-08-01,16,18,17.0,989,2017-Q3,1.33597335245081,103.694567800488,989A JURONG WEST STREET 93 SINGAPORE 641989,5.317132480339216,Jurong East,NS/EW,0,0,18.360443282588843,15.73256702908419,33.159186765696035,10.09563950843455,5.461355786958355,West,0
173471,2024-02,BUKIT BATOK,5 ROOM,443C,BT BATOK WEST AVE 8,04 TO 06,112.0,Improved,2019,94 years 01 month,700000.0,2024,1,6,6250.0,2024-02-01,4,6,5.0,443,2024-Q1,1.35557897178099,103.737833820151,443C BUKIT BATOK WEST AVENUE 8 WEST RIDGES @ BUKIT BATOK SINGAPORE 653443,2.570194531698464,Jurong East,NS/EW,0,0,14.946311021251445,11.969032630008256,28.215500515526166,7.835158294702311,2.601976234437423,West,0
61288,2019-11,JURONG WEST,5 ROOM,810,JURONG WEST ST 81,04 TO 06,127.0,Improved,1993,73 years 01 month,395000.0,2019,4,32,3110.236220472441,2019-11-01,4,6,5.0,810,2019-Q4,1.34688627343839,103.695471362908,810 JURONG WEST STREET 81 SINGAPORE 640810,5.433027846181647,Jurong East,NS/EW,0,0,18.69195383045713,15.951875611515353,32.96524234411368,10.592545899914569,5.571648117787034,West,0
27763,2018-05,SENGKANG,EXECUTIVE,143,RIVERVALE DR,04 TO 06,140.0,Apartment,1999,80 years 08 months,530000.0,2018,2,26,3785.714285714286,2018-05-01,4,6,5.0,143,2018-Q2,1.39006592833714,103.905723427087,143 RIVERVALE DRIVE PCF SPARKLETOTS PRESCHOOL @ PUNGGOL EAST BLK 143 (KN) SINGAPORE 540143,1.1070070879894525,Sengkang,NE,0,0,13.369374569303817,12.538183370032002,9.953101225089725,17.739418808504553,19.11036405385163,Northeast,0
18052,2017-11,PUNGGOL,4 ROOM,128A,PUNGGOL FIELD WALK,07 TO 09,85.0,Model A,2003,84 years 08 months,374000.0,2017,4,22,4400.0,2017-11-01,7,9,8.0,128,2017-Q4,1.39354226277371,103.912428475975,128A PUNGGOL FIELD WALK SINGAPORE 821128,1.6979846654096844,Punggol,NE,0,0,14.061208548049375,13.319834633906503,9.368102496746227,18.57033451820082,19.942184155888867,Northeast,0
16912,2017-10,YISHUN,4 ROOM,755,YISHUN ST 72,04 TO 06,84.0,Simplified,1986,68 years 01 month,343000.0,2017,4,39,4083.3333333333335,2017-10-01,4,6,5.0,755,2017-Q4,1.42707820696356,103.832706088136,755 YISHUN STREET 72 SINGAPORE 760755,5.251105328896904,Woodlands,NS/TE,0,0,16.149320286161863,13.652332938591844,18.977915735794763,15.801087010735877,14.41457826815854,North,0
122452,2022-03,CENTRAL AREA,5 ROOM,1F,CANTONMENT RD,46 TO 48,107.0,Type S2,2011,87 years 10 months,1388888.88,2022,1,14,12980.269906542057,2022-03-01,46,48,47.0,1,2022-Q1,1.27598699469414,103.841191762017,1F CANTONMENT ROAD THE PINNACLE@DUXTON SINGAPORE 085601,0.5972999854465736,Outram Park,EW/NE,0,1,1.3405137982478204,3.29320008630287,19.38667798604602,7.558599704264729,12.559763831608937,Central,1
119995,2022-07,BUKIT BATOK,5 ROOM,117,BT BATOK WEST AVE 6,19 TO 21,132.0,Model A,1985,61 years 07 months,700000.0,2022,3,40,5303.030303030303,2022-07-01,19,21,20.0,117,2022-Q3,1.34996555858187,103.74714214948,117 BUKIT BATOK WEST AVENUE 6 SINGAPORE 650117,1.9724702881217657,Jurong East,NS/EW,0,0,13.738377001413784,10.762035976266837,27.211108245325896,6.766874192684481,1.9380265695347114,West,0
130969,2022-02,PUNGGOL,5 ROOM,128A,PUNGGOL FIELD WALK,13 TO 15,110.0,Improved,2003,80 years 06 months,511000.0,2022,1,22,4645.454545454545,2022-02-01,13,15,14.0,128,2022-Q1,1.39354226277371,103.912428475975,128A PUNGGOL FIELD WALK SINGAPORE 821128,1.6979846654096844,Punggol,NE,0,0,14.061208548049375,13.319834633906503,9.368102496746227,18.57033451820082,19.942184155888867,Northeast,0
172623,2024-06,BUKIT BATOK,4 ROOM,290E,BT BATOK ST 24,07 TO 09,102.0,Model A,1997,72 years 07 months,615000.0,2024,2,28,6029.411764705882,2024-06-01,7,9,8.0,290,2024-Q2,1.34389104771025,103.757689179709,290E BUKIT BATOK STREET 24 SPRING VIEW SINGAPORE 654290,2.1024393087701907,Jurong East,NS/EW,0,0,12.387161396828645,9.409693673965174,26.091169992878953,5.654950375336096,1.9866267986220862,West,0
169972,2024-04,ANG MO KIO,4 ROOM,260B,ANG MO KIO ST 21,25 TO 27,93.0,Model A,2018,93 years 03 months,973000.0,2024,2,7,10462.36559139785,2024-04-01,25,27,26.0,260,2024-Q2,1.36886409962902,103.83395420063,260B ANG MO KIO STREET 21 KEBUN BARU COURT SINGAPORE 562260,1.7438168762213366,Ang Mo Kio,NS,0,0,9.733874090845584,7.181020111357724,17.520343690292687,10.271422577557745,10.810960911956458,Northeast,1
131353,2022-04,PUNGGOL,4 ROOM,308A,PUNGGOL WALK,13 TO 15,92.0,Premium Apartment,2016,93 years,618000.0,2022,2,9,6717.391304347826,2022-04-01,13,15,14.0,308,2022-Q2,1.40776143065745,103.900998963843,308A PUNGGOL WALK GREENLAND CHILDCARE @ PUNGGOL PTE LTD SINGAPORE 821308,0.35814136526684454,Punggol,NE,1,1,14.944834699420621,13.796125626219705,11.156048181181962,18.564263722097035,19.37617318495805,Northeast,0
84586,2020-11,SENGKANG,5 ROOM,433B,SENGKANG WEST WAY,01 TO 03,113.0,Improved,2014,93 years,520000.0,2020,4,11,4601.769911504425,2020-11-01,1,3,2.0,433,2020-Q4,1.39388894272879,103.877494624525,433B SENGKANG WEST WAY FERNVALE PALMS SINGAPORE 792433,2.060406817271342,Sengkang,NE,0,0,12.677167507611111,11.147019509316777,13.09047865574016,15.598879176001136,16.35634301125503,Northeast,0
51194,2019-06,HOUGANG,4 ROOM,987A,BUANGKOK GREEN,01 TO 03,93.0,Model A,2015,94 years 09 months,375000.0,2019,2,10,4032.258064516129,2019-06-01,1,3,2.0,987,2019-Q2,1.37988778365709,103.878384864309,987A BUANGKOK GREEN BUANGKOK VALE SINGAPORE 531987,2.348633230059915,Sengkang,NE,0,0,11.195274159512492,9.831655526578661,12.691608108470529,14.638968370774831,15.868038457002726,Northeast,0
142144,2022-05,YISHUN,4 ROOM,509A,YISHUN AVE 4,04 TO 06,93.0,Model A,2018,95 years,510000.0,2022,2,7,5483.870967741936,2022-05-01,4,6,5.0,509,2022-Q2,1.41371070675887,103.839528173264,509A YISHUN AVENUE 4 ANGSANA BREEZE @ YISHUN SINGAPORE 761509,4.987693921199059,Ang Mo Kio,NS,0,0,14.590206085534884,12.190975942032924,17.761073695328736,14.792625802738357,13.944791487352798,North,0
174772,2024-04,BUKIT PANJANG,3 ROOM,149,PETIR RD,01 TO 03,73.0,Model A,1988,63 years 07 months,362000.0,2024,2,37,4958.904109589041,2024-04-01,1,3,2.0,149,2024-Q2,1.37674574870271,103.766707623856,149 PETIR ROAD SINGAPORE 670149,5.579557902360468,Jurong East,NS/EW,0,0,14.01657870870094,10.880441260763545,25.02630009341422,8.976696977805709,5.5107306273489645,West,0
161405,2023-06,SENGKANG,4 ROOM,231,COMPASSVALE WALK,13 TO 15,101.0,Model A,1999,75 years 04 months,540000.0,2023,2,26,5346.534653465346,2023-06-01,13,15,14.0,231,2023-Q2,1.38953316865049,103.901395398008,231 COMPASSVALE WALK COMPASSVALE PLAINS SINGAPORE 540231,0.6566789705919605,Sengkang,NE,0,1,13.10385399795326,12.185180957693213,10.398852441927744,17.3163872281692,18.637228404455335,Northeast,0
44325,2019-02,PASIR RIS,4 ROOM,232,PASIR RIS DR 4,01 TO 03,107.0,Model A,1993,73 years 06 months,370000.0,2019,1,32,3457.9439252336447,2019-02-01,1,3,2.0,232,2019-Q1,1.37472099992647,103.961671927365,232 PASIR RIS DRIVE 4 SINGAPORE 510232,2.828817344993415,Tampines,EW/DT,0,0,15.980543738360566,16.355629914245974,3.508774710726407,22.352647979693447,24.68372445038571,East,1
62323,2019-11,YISHUN,4 ROOM,349,YISHUN AVE 11,10 TO 12,108.0,Model A,1988,67 years 09 months,350000.0,2019,4,37,3240.740740740741,2019-11-01,10,12,11.0,349,2019-Q4,1.42613375072405,103.843391520362,349 YISHUN AVENUE 11 YISHUN JASMINE SINGAPORE 760349,6.2798266276794354,Ang Mo Kio,NS,0,0,15.938204308887652,13.601289907444638,17.837749145535426,16.214767864356162,15.183342845834058,North,0
131663,2022-06,PUNGGOL,4 ROOM,305A,PUNGGOL RD,13 TO 15,95.0,Premium Apartment,2012,89 years 02 months,610000.0,2022,2,13,6421.052631578948,2022-06-01,13,15,14.0,305,2022-Q2,1.40507911812904,103.90670598777,305A PUNGGOL ROAD TREELODGE@PUNGGOL SINGAPORE 821305,0.5248204898024255,Punggol,NE,0,1,14.920337171937758,13.914871149350159,10.455052907066722,18.850058330400334,19.82833466084251,Northeast,0
101358,2021-07,ANG MO KIO,5 ROOM,729,ANG MO KIO AVE 6,07 TO 09,119.0,Improved,1980,58 years,688000.0,2021,3,45,5781.512605042017,2021-07-01,7,9,8.0,729,2021-Q3,1.3738661404098,103.845935822176,729 ANG MO KIO AVENUE 6 SINGAPORE 560729,0.592216541500761,Ang Mo Kio,NS,0,1,10.119524955820744,7.878276769020837,16.21557592858249,11.557139161915465,12.254166545820441,Northeast,1
3827,2017-03,TAMPINES,5 ROOM,161,SIMEI RD,04 TO 06,122.0,Improved,1989,71 years,498000.0,2017,1,36,4081.967213114754,2017-03-01,4,6,5.0,161,2017-Q1,1.34535115701675,103.960120896288,161 SIMEI ROAD SINGAPORE 520161,1.8673383383344189,Tampines,EW/DT,0,0,13.972018563458855,14.903266308835159,4.080953888562243,21.13057719468391,24.109235949450856,East,0
26043,2018-04,SERANGOON,4 ROOM,126,SERANGOON NTH AVE 1,10 TO 12,91.0,New Generation,1985,66 years 03 months,362500.0,2018,2,40,3983.516483516484,2018-04-01,10,12,11.0,126,2018-Q2,1.36605821730761,103.871874850688,126 SERANGOON NORTH AVENUE 1 SINGAPORE 550126,1.7318718586647663,Serangoon,NE/CC,0,0,9.522723353167448,8.143549579350008,13.29921203705581,13.126168659013295,14.728513316919287,Northeast,1
128111,2022-08,JURONG WEST,4 ROOM,657B,JURONG WEST ST 65,04 TO 06,92.0,Model A,2001,77 years 11 months,473500.0,2022,3,24,5146.739130434783,2022-08-01,4,6,5.0,657,2022-Q3,1.33596098683449,103.700840300361,657B JURONG WEST STREET 65 SINGAPORE 642657,4.6214089849825015,Jurong East,NS/EW,0,0,17.70096955896905,15.053466140502715,32.465287540809314,9.47152521914736,4.765542594244742,West,0
147544,2023-01,BUKIT MERAH,2 ROOM,24,BEO CRES,01 TO 03,48.0,Standard,1971,47 years 09 months,280000.0,2023,1,54,5833.333333333333,2023-01-01,1,3,2.0,24,2023-Q1,1.28852535171166,103.828458597142,24 BEO CRESCENT SINGAPORE 160024,1.5516816987073148,Outram Park,EW/NE,0,0,2.580078183103561,1.8106826475324964,19.99197344005124,5.856414646820321,10.645904004291177,Central,1
80272,2020-09,YISHUN,4 ROOM,107,YISHUN RING RD,04 TO 06,105.0,New Generation,1982,60 years 08 months,325000.0,2020,3,43,3095.2380952380954,2020-09-01,4,6,5.0,107,2020-Q3,1.4322213507358,103.827555124846,107 YISHUN RING ROAD SINGAPORE CHILDREN'S SOCIETY FAMILY SERVICE CENTRE (YISHUN) SINGAPORE 760107,4.593247769111607,Woodlands,NS/TE,0,0,16.796090225833343,14.234822476736074,19.723124366747353,16.116941372648665,14.459226902039775,North,0
167078,2023-11,WOODLANDS,4 ROOM,351,WOODLANDS AVE 1,01 TO 03,106.0,Model A,1996,71 years 11 months,480000.0,2023,4,29,4528.301886792453,2023-11-01,1,3,2.0,351,2023-Q4,1.43250600139272,103.784061599702,351 WOODLANDS AVENUE 1 SINGAPORE 730351,0.5587397625215771,Woodlands,NS/TE,0,1,18.213673183865428,15.238865453937462,24.270947033303912,15.136038687671357,11.954123256997137,North,0
100627,2021-06,SENGKANG,4 ROOM,434B,FERNVALE RD,16 TO 18,94.0,Premium Apartment,2013,91 years 01 month,475000.0,2021,2,12,5053.191489361702,2021-06-01,16,18,17.0,434,2021-Q2,1.39460960429021,103.876585517065,434B FERNVALE ROAD FERNVALE RESIDENCE SINGAPORE 792434,2.171277155624946,Sengkang,NE,0,0,12.732166224343613,11.173999771177156,13.208489886085973,15.582168000447238,16.298006927409155,Northeast,0
181955,2024-03,JURONG WEST,5 ROOM,865,JURONG WEST ST 81,04 TO 06,122.0,Improved,1996,71 years 07 months,580000.0,2024,1,29,4754.098360655737,2024-03-01,4,6,5.0,865,2024-Q1,1.34981721608461,103.695444669205,865 JURONG WEST STREET 81 SINGAPORE 640865,5.537921699097544,Jurong East,NS/EW,0,0,18.820945195404477,16.054446798967227,32.95053949065847,10.770617704729116,5.674055317363621,West,0
120581,2022-03,BUKIT MERAH,3 ROOM,14,TAMAN HO SWEE,04 TO 06,54.0,Standard,1970,46 years 11 months,325000.0,2022,1,55,6018.518518518518,2022-03-01,4,6,5.0,14,2022-Q1,1.28790461781044,103.83219770269,14 TAMAN HO SWEE BUKIT HO SWEE VIEW SINGAPORE 161014,1.1707978001926345,Outram Park,EW/NE,0,0,2.1601707168692794,1.8233930210510538,19.6457139861169,6.2777486922540575,11.0469972892777,Central,1
191023,2024-12,TAMPINES,4 ROOM,519A,TAMPINES CTRL 8,07 TO 09,84.0,DBSS,2014,88 years 07 months,845000.0,2024,4,11,10059.52380952381,2024-12-01,7,9,8.0,519,2024-Q4,1.35727594461393,103.940381600354,519A TAMPINES CENTRAL 8 CENTRALE 8 AT TAMPINES SINGAPORE 521519,0.7018722376524587,Tampines,EW/DT,0,1,12.920517868417104,13.361268648368988,5.737452562787854,19.43753247137974,22.042370512857556,East,0
64872,2020-01,GEYLANG,4 ROOM,9,EUNOS CRES,10 TO 12,91.0,New Generation,1978,57 years 06 months,435000.0,2020,1,47,4780.219780219781,2020-01-01,10,12,11.0,9,2020-Q1,1.32179869884385,103.902774741744,9 EUNOS CRESCENT SINGAPORE 400009,1.234926503925513,Paya Lebar,EW/CC,0,0,7.193012320797808,8.050812579516903,10.941669460495872,14.325261208989252,17.737679220244434,East,1
171937,2024-07,BUKIT BATOK,2 ROOM,450D,BT BATOK WEST AVE 6,10 TO 12,47.0,Model A,2019,93 years 10 months,339500.0,2024,3,6,7223.404255319149,2024-07-01,10,12,11.0,450,2024-Q3,1.35266810573153,103.74396208468,450D BUKIT BATOK WEST AVENUE 6 WEST TERRA @ BUKIT BATOK SINGAPORE 654450,2.205864688260193,Jurong East,NS/EW,0,0,14.19846395370899,11.215937467272454,27.54812821676662,7.202211740927721,2.1984815648246934,West,0
273,2017-01,BUKIT PANJANG,4 ROOM,624,SENJA RD,10 TO 12,90.0,Model A,2001,83 years 11 months,370000.0,2017,1,24,4111.111111111111,2017-01-01,10,12,11.0,624,2017-Q1,1.38624340292657,103.76183758098,624 SENJA ROAD SINGAPORE 670624,6.264486311900183,Woodlands,NS/TE,0,0,15.166931862649045,12.030214902562264,25.645218204052888,10.098487594637039,6.268416844543654,West,0
173256,2024-11,BUKIT BATOK,4 ROOM,448C,BT BATOK WEST AVE 9,01 TO 03,93.0,Model A,2019,93 years 05 months,600000.0,2024,4,6,6451.612903225807,2024-11-01,1,3,2.0,448,2024-Q4,1.35272258284343,103.741240002444,448C BUKIT BATOK WEST AVENUE 9 WEST VALLEY @ BUKIT BATOK SINGAPORE 653448,2.207318074091646,Jurong East,NS/EW,0,0,14.45624782529729,11.485233694626103,27.85010569133796,7.363513222769786,2.2197284839130673,West,0
29121,2018-06,JURONG WEST,4 ROOM,324,TAH CHING RD,04 TO 06,106.0,Model A,1997,77 years 11 months,385000.0,2018,2,28,3632.075471698113,2018-06-01,4,6,5.0,324,2018-Q2,1.33637566586899,103.723450457483,324 TAH CHING ROAD SINGAPORE 610324,2.1307476715169513,Jurong East,NS/EW,0,0,15.371204434393936,12.63633201280116,29.959969179240495,7.362647291633901,2.2730159402289254,West,0
188013,2024-04,SENGKANG,4 ROOM,336B,ANCHORVALE CRES,01 TO 03,92.0,Premium Apartment,2015,90 years 09 months,600000.0,2024,2,10,6521.739130434783,2024-04-01,1,3,2.0,336,2024-Q2,1.39753870318824,103.889080056801,336B ANCHORVALE CRESCENT ANCHORVALE COVE SINGAPORE 542336,0.998122532806139,Sengkang,NE,0,1,13.421191458646362,12.126355345025503,11.966726221310156,16.81890688946401,17.697325903986325,Northeast,0
39968,2018-11,SEMBAWANG,5 ROOM,480,SEMBAWANG DR,10 TO 12,110.0,Improved,2000,80 years 09 months,382000.0,2018,4,25,3472.7272727272725,2018-11-01,10,12,11.0,480,2018-Q4,1.45220212566522,103.815168664829,480 SEMBAWANG DRIVE SINGAPORE 750480,3.612594754425429,Woodlands,NS/TE,0,0,19.231422671833233,16.55842926661445,21.898108444648905,17.830814754205974,15.468506868228745,North,0
189793,2024-08,SENGKANG,EXECUTIVE,310A,ANCHORVALE RD,07 TO 09,126.0,Premium Apartment,2003,77 years 05 months,745000.0,2024,3,22,5912.6984126984125,2024-08-01,7,9,8.0,310,2024-Q3,1.3909053148199,103.885024959643,310A ANCHORVALE ROAD ANCHORVALE VISTA SINGAPORE 541310,1.2121180626900958,Sengkang,NE,0,0,12.5805766375354,11.261924879054627,12.197486735321725,15.99290103221903,16.992948113926463,Northeast,0
93632,2021-03,PUNGGOL,4 ROOM,313C,SUMANG LINK,10 TO 12,92.0,Model A,2015,93 years 05 months,485000.0,2021,1,10,5271.739130434783,2021-03-01,10,12,11.0,313,2021-Q1,1.41062885103467,103.901551852458,313C SUMANG LINK PUNGGOL PARCVISTA SINGAPORE 823313,0.661137670344496,Punggol,NE,0,1,15.2637873916662,14.096475851928785,11.24280880635249,18.823438759227813,19.57038921377904,Northeast,0
54470,2019-07,YISHUN,4 ROOM,655,YISHUN AVE 4,07 TO 09,104.0,Model A,1987,67 years 01 month,350000.0,2019,3,38,3365.3846153846152,2019-07-01,7,9,8.0,655,2019-Q3,1.4227963298673,103.839834894209,655 YISHUN AVENUE 4 NEE SOON CENTRAL VIEW SINGAPORE 760655,5.970197479707711,Ang Mo Kio,NS,0,0,15.594113792473797,13.201395112990632,18.066636092995108,15.704578798845732,14.641103313414044,North,0
150275,2023-08,CHOA CHU KANG,5 ROOM,803D,KEAT HONG CL,01 TO 03,113.0,Improved,2017,92 years 11 months,605000.0,2023,3,8,5353.982300884956,2023-08-01,1,3,2.0,803,2023-Q3,1.37289698327409,103.744347570659,803D KEAT HONG CLOSE KEAT HONG PRIDE SINGAPORE 684803,4.453282375213024,Jurong East,NS/EW,0,0,15.507645198685164,12.418116392556973,27.49049691173876,9.201694471737143,4.448237961501591,West,0
104129,2021-08,BEDOK,3 ROOM,807C,CHAI CHEE RD,13 TO 15,68.0,Model A,2016,94 years 04 months,528000.0,2021,3,9,7764.705882352941,2021-08-01,13,15,14.0,807,2021-Q3,1.3279979407231,103.92324860169,807C CHAI CHEE ROAD PING YI GREENS SINGAPORE 463807,0.9205580045483207,Bedok,EW,0,1,9.462659074744385,10.426596069208474,8.599324227629017,16.693699705580947,19.97806522633908,East,1
131330,2022-04,PUNGGOL,4 ROOM,661A,EDGEDALE PLAINS,16 TO 18,92.0,Premium Apartment,2017,94 years 02 months,586888.0,2022,2,8,6379.217391304348,2022-04-01,16,18,17.0,661,2022-Q2,1.40303056639258,103.917080721325,661A EDGEDALE PLAINS WATERWAY SUNDEW SINGAPORE 821661,1.686642880138532,Punggol,NE,0,0,15.234759334366462,14.454326389967598,9.321371941993585,19.611816750214015,20.801685462845406,Northeast,0
32418,2018-07,WOODLANDS,3 ROOM,1,MARSILING DR,07 TO 09,65.0,Improved,1974,55 years 01 month,225000.0,2018,3,51,3461.538461538461,2018-07-01,7,9,8.0,1,2018-Q3,1.44150533051525,103.77213161946,24 MARSILING DRIVE MARSILING GREEN SINGAPORE 730024,1.6772721568555673,Woodlands,NS/TE,0,0,19.68515845735816,16.66720718595988,25.8486626103146,16.119722406151954,12.485904864284782,North,0
113195,2021-11,PUNGGOL,5 ROOM,121B,EDGEDALE PLAINS,16 TO 18,113.0,Improved,2017,94 years 07 months,630000.0,2021,4,8,5575.221238938053,2021-11-01,16,18,17.0,121,2021-Q4,1.39308870276065,103.909041773266,121B EDGEDALE PLAINS PUNGGOL EDGE SINGAPORE 822121,1.4690054430362522,Sengkang,NE,0,0,13.837640987201842,13.033463720834254,9.70551731285013,18.235362612323865,19.570992986521762,Northeast,0
203545,2025-01,TAMPINES,3 ROOM,854,TAMPINES ST 82,10 TO 12,74.0,Model A,1985,59 years 09 months,490000.0,2025,1,40,6621.621621621622,2025-01-01,10,12,11.0,854,2025-Q1,1.35302683671628,103.936584448142,854 TAMPINES STREET 82 TAMPINES VILLE SINGAPORE 520854,1.0721522253278164,Tampines,EW/DT,0,0,12.294247034165641,12.776317171463152,6.2342296955610506,18.880010287894336,21.569416657803906,East,0
78964,2020-09,JURONG WEST,5 ROOM,961,JURONG WEST ST 92,13 TO 15,120.0,Improved,1989,68 years,428000.0,2020,3,36,3566.6666666666665,2020-09-01,13,15,14.0,961,2020-Q3,1.34128694894302,103.692069415924,961 JURONG WEST STREET 92 SINGAPORE 640961,5.661207322902401,Jurong East,NS/EW,0,0,18.818916518472122,16.143677976431523,33.384952355900325,10.610118601005915,5.803795875897488,West,0
45957,2019-03,QUEENSTOWN,3 ROOM,89,TANGLIN HALT RD,04 TO 06,60.0,Model A,2008,88 years 06 months,366000.0,2019,1,17,6100.0,2019-03-01,4,6,5.0,89,2019-Q1,1.30120035372775,103.798921874569,89 TANGLIN HALT ROAD COMMONWEALTH VIEW SINGAPORE 141089,1.1460126277854439,Buona Vista,EW/CC,0,0,6.132886537554538,3.7486307042050524,22.531851861545736,2.5553974323857043,7.088413124408574,Central,1
180295,2024-01,JURONG EAST,EXECUTIVE,216,JURONG EAST ST 21,04 TO 06,148.0,Maisonette,1985,60 years 06 months,880000.0,2024,1,40,5945.945945945946,2024-01-01,4,6,5.0,216,2024-Q1,1.33953084548923,103.73780943839,216 JURONG EAST STREET 21 SINGAPORE 600216,0.8904088836348625,Jurong East,NS/EW,0,1,14.065665673310841,11.231646837785227,28.336505373846983,6.418077242628355,0.9787710827275531,West,0
130840,2022-01,PUNGGOL,5 ROOM,201C,PUNGGOL FIELD,04 TO 06,110.0,Improved,2004,81 years 07 months,540000.0,2022,1,21,4909.090909090909,2022-01-01,4,6,5.0,201,2022-Q1,1.39933148198649,103.903711960348,201C PUNGGOL FIELD SINGAPORE 823201,0.6265519798919054,Punggol,NE,0,1,14.200789954814537,13.203339306678084,10.503340038118226,18.18746544499085,19.270567643264847,Northeast,0
170273,2024-07,BEDOK,3 ROOM,412,BEDOK NTH AVE 2,04 TO 06,67.0,New Generation,1979,53 years 11 months,406000.0,2024,3,46,6059.701492537313,2024-07-01,4,6,5.0,412,2024-Q3,1.32929126082802,103.931090689284,412 BEDOK NORTH AVENUE 2 SINGAPORE 460412,0.592014236648287,Bedok,EW,0,1,10.284217962585727,11.30670005081325,7.767657793433099,17.57631443080926,20.84625003294571,East,1
19522,2017-12,HOUGANG,EXECUTIVE,357,HOUGANG AVE 7,01 TO 03,148.0,Maisonette,1985,66 years 03 months,616888.0,2017,4,40,4168.1621621621625,2017-12-01,1,3,2.0,357,2017-Q4,1.37285850893985,103.899648655594,357 HOUGANG AVENUE 7 SINGAPORE 530357,2.1361179998598328,Sengkang,NE,0,0,11.361472844076776,10.66935454913207,10.253717535494575,16.11265792152762,17.906972057618507,Northeast,0
182403,2024-09,KALLANG/WHAMPOA,3 ROOM,72,GEYLANG BAHRU,01 TO 03,59.0,Improved,1974,48 years 07 months,380000.0,2024,3,51,6440.677966101695,2024-09-01,1,3,2.0,72,2024-Q3,1.32158321590245,103.871419569078,72 GEYLANG BAHRU SINGAPORE 330072,2.3532742054500284,Paya Lebar,EW/CC,0,0,4.85376740163616,4.7341455736913645,14.172300712336284,10.922130941391496,14.264686739861883,Central,1
100816,2021-06,TAMPINES,4 ROOM,351,TAMPINES ST 33,01 TO 03,106.0,Model A,1996,74 years,415000.0,2021,2,29,3915.0943396226417,2021-06-01,1,3,2.0,351,2021-Q2,1.35281545076783,103.96291319475,351 TAMPINES STREET 33 SINGAPORE 520351,1.8795244069023391,Tampines,EW/DT,0,0,14.66430218567788,15.468571787287084,3.428967067851883,21.655551958453035,24.480185283072874,East,0
125543,2022-03,HOUGANG,3 ROOM,642,HOUGANG AVE 8,01 TO 03,60.0,Improved,1987,65 years,308000.0,2022,1,38,5133.333333333333,2022-03-01,1,3,2.0,642,2022-Q1,1.37169878879803,103.879948293051,642 HOUGANG AVENUE 8 SINGAPORE 530642,2.4947235148722378,Serangoon,NE/CC,0,0,10.374569466456004,9.164451821137034,12.426978372870057,14.220897765386871,15.759050932320134,Northeast,0
133760,2022-06,SEMBAWANG,4 ROOM,331,SEMBAWANG CL,04 TO 06,101.0,Model A,1999,76 years 02 months,450000.0,2022,2,26,4455.445544554455,2022-06-01,4,6,5.0,331,2022-Q2,1.44752857706619,103.816661963955,331 SEMBAWANG CLOSE SINGAPORE 750331,3.55499488884997,Woodlands,NS/TE,0,0,18.688716013537015,16.023310045053474,21.521401266415193,17.36903578060671,15.113766186849599,North,0
157303,2023-03,PUNGGOL,4 ROOM,227B,SUMANG LANE,04 TO 06,92.0,Premium Apartment,2018,94 years 01 month,565000.0,2023,1,7,6141.304347826087,2023-03-01,4,6,5.0,227,2023-Q1,1.40347414456338,103.893723781941,227B SUMANG LANE THE VERANDAH @ MATILDA SINGAPORE 822227,0.9300402465829642,Punggol,NE,0,1,14.213102956490578,12.958750886894306,11.705293309570392,17.644398838408094,18.441271491979094,Northeast,0
119610,2022-01,BUKIT BATOK,EXECUTIVE,288A,BT BATOK ST 25,07 TO 09,144.0,Apartment,1997,74 years 11 months,775000.0,2022,1,28,5381.944444444444,2022-01-01,7,9,8.0,288,2022-Q1,1.34507653993863,103.760512031129,288A BUKIT BATOK STREET 25 NATURE VIEW SINGAPORE 650288,2.4355625881704013,Jurong East,NS/EW,0,0,12.199691211364758,9.197792691086441,25.76725327884507,5.6723237642967055,2.316830398140109,West,0
98092,2021-05,PUNGGOL,5 ROOM,202B,PUNGGOL FIELD,13 TO 15,110.0,Improved,2004,82 years 04 months,470000.0,2021,2,21,4272.727272727273,2021-05-01,13,15,14.0,202,2021-Q2,1.39923478058822,103.904277542429,202B PUNGGOL FIELD SINGAPORE 822202,0.6583332947772264,Punggol,NE,0,1,14.21707253912753,13.232551248803999,10.44095769640708,18.229698918548664,19.32454566251285,Northeast,0
173339,2024-08,BUKIT BATOK,5 ROOM,289E,BT BATOK ST 25,07 TO 09,122.0,Improved,1998,72 years 06 months,702500.0,2024,3,27,5758.196721311476,2024-08-01,7,9,8.0,289,2024-Q3,1.34421030208672,103.759205458315,289E BUKIT BATOK STREET 25 HDB PUBLIC SHELTERS SINGAPORE 654289,2.261283543247459,Jurong East,NS/EW,0,0,12.266020070127642,9.277984084826317,25.920163372991404,5.628524325094905,2.142690081807531,West,0
89223,2021-01,QUEENSTOWN,5 ROOM,91,DAWSON RD,07 TO 09,99.0,Premium Apartment,2016,94 years 04 months,950000.0,2021,1,9,9595.959595959595,2021-01-01,7,9,8.0,91,2021-Q1,1.29534041095665,103.812585191493,91 DAWSON ROAD SKYTERRACE @ DAWSON SINGAPORE 144091,2.42769302345259,Orchard,NS,0,0,4.485494027360266,2.42769302345259,21.32001128538242,4.025018078449302,8.732290019458334,Central,1
78223,2020-09,BUKIT BATOK,4 ROOM,176,BT BATOK WEST AVE 8,04 TO 06,103.0,Model A,1984,63 years 04 months,380000.0,2020,3,41,3689.3203883495135,2020-09-01,4,6,5.0,176,2020-Q3,1.34602341469707,103.741411023838,176 BUKIT BATOK WEST AVENUE 8 SINGAPORE 650176,1.462599499716463,Jurong East,NS/EW,0,0,14.054340633052153,11.13816160924344,27.875840626311422,6.732805834921627,1.479406655670998,West,0
92457,2021-03,BEDOK,EXECUTIVE,94C,BEDOK NTH AVE 4,07 TO 09,143.0,Apartment,1993,71 years 02 months,772500.0,2021,1,32,5402.097902097902,2021-03-01,7,9,8.0,94,2021-Q1,1.33361429610515,103.942628254514,94C BEDOK NORTH AVENUE 4 SINGAPORE 462094,1.7206499375041386,Bedok,EW,0,0,11.637369400491583,12.668969550466786,6.42133441838612,18.931678298052287,22.125083259369962,East,1
82938,2020-11,BEDOK,3 ROOM,55,CHAI CHEE DR,07 TO 09,76.0,Model A,1984,62 years 06 months,290000.0,2020,4,41,3815.7894736842095,2020-11-01,7,9,8.0,55,2020-Q4,1.32684846948333,103.919015573079,55 CHAI CHEE DRIVE PING-AN GARDENS SINGAPORE 460055,1.3153719350496063,Bedok,EW,0,0,8.99676703526502,9.93900555360214,9.075312737252597,16.20683223992022,19.51167449638749,East,1
135433,2022-07,SENGKANG,4 ROOM,157B,RIVERVALE CRES,01 TO 03,90.0,Premium Apartment,2003,80 years 03 months,440000.0,2022,3,22,4888.888888888889,2022-07-01,1,3,2.0,157,2022-Q3,1.38763106364664,103.908232918823,157B RIVERVALE CRESCENT RIVERVALE VIEW SINGAPORE 542157,1.4436839093855085,Sengkang,NE,0,0,13.260425895641927,12.519371360761479,9.609899438384515,17.81099591231593,19.286538428946745,Northeast,0
143653,2023-03,ANG MO KIO,4 ROOM,260B,ANG MO KIO ST 21,04 TO 06,93.0,Model A,2018,94 years 04 months,732000.0,2023,1,7,7870.967741935484,2023-03-01,4,6,5.0,260,2023-Q1,1.36886409962902,103.83395420063,260B ANG MO KIO STREET 21 KEBUN BARU COURT SINGAPORE 562260,1.7438168762213366,Ang Mo Kio,NS,0,0,9.733874090845584,7.181020111357724,17.520343690292687,10.271422577557745,10.810960911956458,Northeast,1
115599,2021-12,PUNGGOL,5 ROOM,638B,PUNGGOL DR,07 TO 09,110.0,Premium Apartment,2005,82 years 03 months,525000.0,2021,4,20,4772.727272727273,2021-12-01,7,9,8.0,638,2021-Q4,1.39982443379455,103.915138951352,638B PUNGGOL DRIVE THE MEADOWS SINGAPORE 822638,1.5579191204535485,Punggol,NE,0,0,14.818365738791156,14.043311712836898,9.357902178101085,19.225187774165388,20.469459956019747,Northeast,0
6599,2017-05,CLEMENTI,3 ROOM,365,CLEMENTI AVE 2,10 TO 12,82.0,New Generation,1978,59 years 08 months,388000.0,2017,2,47,4731.707317073171,2017-05-01,10,12,11.0,365,2017-Q2,1.3122997890586,103.769943830728,365 CLEMENTI AVENUE 2 SINGAPORE 120365,2.349146535411422,Buona Vista,EW/CC,0,0,9.581629184092195,7.010776999845226,25.301375418251162,1.887511841685849,3.717963896963241,West,1
88556,2021-01,JURONG EAST,4 ROOM,261,JURONG EAST ST 24,01 TO 03,94.0,New Generation,1983,61 years 03 months,320000.0,2021,1,42,3404.255319148936,2021-01-01,1,3,2.0,261,2021-Q1,1.34449568862198,103.740401081749,261 JURONG EAST STREET 24 SINGAPORE 600261,1.3065470928807907,Jurong East,NS/EW,0,0,14.068425604279486,11.171284772165146,28.000732697391847,6.661709073384695,1.3375205393309744,West,0
20630,2018-01,BISHAN,4 ROOM,197,BISHAN ST 13,07 TO 09,84.0,Simplified,1987,68 years,543000.0,2018,1,38,6464.285714285715,2018-01-01,7,9,8.0,197,2018-Q1,1.34909908028044,103.850673737521,197 BISHAN STREET 13 BISHAN SPRING SINGAPORE 570197,0.3286844625067729,Bishan,NS/CC,1,1,7.349971870474984,5.37551888864445,15.746958911855536,10.11189384503329,12.038316424687883,Northeast,1
196218,2024-07,YISHUN,4 ROOM,122,YISHUN ST 11,07 TO 09,96.0,New Generation,1984,59 years 05 months,515000.0,2024,3,41,5364.583333333333,2024-07-01,7,9,8.0,122,2024-Q3,1.43499758920055,103.831124796378,122 YISHUN STREET 11 CHONG PANG VIEW SINGAPORE 760122,4.965001136501518,Woodlands,NS/TE,0,0,17.04515891674767,14.533712852969973,19.479394881524314,16.54787982605309,14.951495375736759,North,0
100629,2021-06,SENGKANG,5 ROOM,196,RIVERVALE DR,07 TO 09,111.0,Improved,2001,78 years 11 months,475000.0,2021,2,24,4279.279279279279,2021-06-01,7,9,8.0,196,2021-Q2,1.39283679521508,103.903146292304,196 RIVERVALE DRIVE RIVERVALE HAVEN SINGAPORE 540196,0.815370921848237,Sengkang,NE,0,1,13.519160439124736,12.593480733802954,10.318092449778938,17.69267911027155,18.946596431886686,Northeast,0
122595,2022-12,CENTRAL AREA,2 ROOM,8,JLN KUKOH,16 TO 18,54.0,Improved,1971,47 years 08 months,308000.0,2022,4,54,5703.703703703704,2022-12-01,16,18,17.0,8,2022-Q4,1.28683793317038,103.838674084243,10A JALAN KUKOH SINGAPORE 163010,0.6449880205856543,Outram Park,EW/NE,0,1,1.4351536544261672,2.0594297266800803,19.052701900683097,7.007388137051393,11.744664585966657,Central,1
87671,2021-01,ANG MO KIO,4 ROOM,700B,ANG MO KIO AVE 6,22 TO 24,90.0,Model A,2003,81 years 07 months,690000.0,2021,1,22,7666.666666666667,2021-01-01,22,24,23.0,700,2021-Q1,1.36941049804616,103.846059822142,700B ANG MO KIO AVENUE 6 AMK CENTRAL HEIGHTS SINGAPORE 562700,0.39895913418143436,Ang Mo Kio,NS,1,1,9.62409045545339,7.395211378358512,16.177204675577276,11.203258711106349,12.091748738483075,Northeast,1
130173,2022-04,PASIR RIS,EXECUTIVE,781,PASIR RIS ST 71,13 TO 15,143.0,Apartment,1996,73 years 04 months,840000.0,2022,2,29,5874.125874125874,2022-04-01,13,15,14.0,781,2022-Q2,1.37386331130291,103.938574633956,781 PASIR RIS STREET 71 SINGAPORE 510781,2.299542795872072,Tampines,EW/DT,0,0,14.03055020228636,14.102364680589993,5.976713830734678,19.97054266707921,22.147587801932303,East,1
17288,2017-11,BUKIT MERAH,3 ROOM,127C,KIM TIAN RD,34 TO 36,62.0,Model A,2013,94 years 03 months,585000.0,2017,4,12,9435.483870967742,2017-11-01,34,36,35.0,127,2017-Q4,1.28152280420004,103.830035757166,127C KIM TIAN ROAD KIM TIAN GREEN SINGAPORE 163127,1.1524293449595742,Outram Park,EW/NE,0,0,2.3363149561044176,2.547480500566263,20.176726074980433,6.193727441470689,11.17875043033108,Central,1
87218,2020-12,TAMPINES,5 ROOM,932,TAMPINES ST 91,01 TO 03,132.0,Model A,1985,64 years,540000.0,2020,4,40,4090.909090909091,2020-12-01,1,3,2.0,932,2020-Q4,1.3456002103285,103.939441311085,932 TAMPINES STREET 91 TAMPINES PALMSPRING SINGAPORE 520932,1.2447363822714674,Tampines,EW/DT,0,0,12.046335098385585,12.744333936641041,6.153033050571646,18.92580705509104,21.8163661571399,East,0
55490,2019-08,PASIR RIS,3 ROOM,1,CHANGI VILLAGE RD,01 TO 03,67.0,Improved,1980,59 years 11 months,270000.0,2019,3,45,4029.8507462686566,2019-08-01,1,3,2.0,1,2019-Q3,1.38854656229022,103.987804503483,1 CHANGI VILLAGE ROAD SINGAPORE 500001,5.978356897204351,Tampines,EW/DT,0,0,19.209828139506705,19.642089092446668,2.716219824417659,25.628317593149113,27.84289549548339,East,1
57482,2019-09,PUNGGOL,4 ROOM,619B,PUNGGOL DR,10 TO 12,95.0,Premium Apartment,2013,93 years 01 month,470000.0,2019,3,12,4947.368421052632,2019-09-01,10,12,11.0,619,2019-Q3,1.4028812272329,103.911042035521,619B PUNGGOL DRIVE PUNGGOL BREEZE SINGAPORE 822619,1.0252707212150098,Punggol,NE,0,0,14.907824318373772,14.013942902728301,9.914768566816807,19.070533931836902,20.17451894615885,Northeast,0
200533,2025-04,JURONG WEST,4 ROOM,458,JURONG WEST ST 41,07 TO 09,92.0,New Generation,1984,58 years 07 months,480000.0,2025,2,41,5217.391304347826,2025-04-01,7,9,8.0,458,2025-Q2,1.35021069322065,103.720031948834,458 JURONG WEST STREET 41 SINGAPORE 640458,3.135725309656163,Jurong East,NS/EW,0,0,16.365252892786096,13.50460764869816,30.218618058638384,8.64877009038329,3.2510184222832197,West,0
15230,2017-10,ANG MO KIO,5 ROOM,609,ANG MO KIO AVE 4,01 TO 03,132.0,Model A,1993,74 years 06 months,580000.0,2017,4,32,4393.939393939394,2017-10-01,1,3,2.0,609,2017-Q4,1.37925113811966,103.838031514738,609 ANG MO KIO AVENUE 4 YIO CHU KANG GREEN SINGAPORE 560609,1.646797949640933,Ang Mo Kio,NS,0,0,10.79929592762865,8.356839882527694,17.13976393521025,11.463103673404865,11.694378515280071,Northeast,1
78854,2020-09,JURONG WEST,3 ROOM,181B,BOON LAY DR,04 TO 06,68.0,Model A,2014,92 years 08 months,320000.0,2020,3,11,4705.882352941177,2020-09-01,4,6,5.0,181,2020-Q3,1.34879350516626,103.70841773457,181B BOON LAY DRIVE BOON LAY MEADOW SINGAPORE 642181,4.160507634235361,Jurong East,NS/EW,0,0,17.45716580091051,14.65405203411018,31.516301771082954,9.528625065115651,4.291774914123852,West,0
67821,2020-02,YISHUN,5 ROOM,612,YISHUN ST 61,10 TO 12,121.0,Improved,1987,65 years 11 months,448000.0,2020,1,38,3702.4793388429753,2020-02-01,10,12,11.0,612,2020-Q1,1.42036475237606,103.835413304775,612 YISHUN STREET 61 MY FIRST SKOOL SINGAPORE 760612,5.739682008960171,Woodlands,NS/TE,0,0,15.372225052054267,12.909874304598247,18.433128375648145,15.245601128205186,14.098051622281123,North,0
184474,2024-01,PUNGGOL,4 ROOM,670B,EDGEFIELD PLAINS,10 TO 12,93.0,Premium Apartment,2016,91 years 06 months,595000.0,2024,1,9,6397.849462365592,2024-01-01,10,12,11.0,670,2024-Q1,1.40532418039845,103.913280733404,670B EDGEFIELD PLAINS WATERWAY RIDGES SINGAPORE 822670,1.255902469085901,Punggol,NE,0,0,15.262474404807687,14.381490433950106,9.813837894882582,19.43427197216313,20.509473217975874,Northeast,0
24488,2018-03,WOODLANDS,4 ROOM,651,WOODLANDS RING RD,01 TO 03,101.0,Model A,1998,79 years 03 months,360000.0,2018,1,27,3564.3564356435645,2018-03-01,1,3,2.0,651,2018-Q1,1.43832201343805,103.799571960255,651 WOODLANDS RING ROAD SINGAPORE 730651,1.4616559903118769,Woodlands,NS/TE,0,0,18.192617607660836,15.345518050080981,22.86368867491476,15.967902269905988,13.271303623290786,North,0
203228,2025-03,SENGKANG,5 ROOM,260C,SENGKANG EAST WAY,10 TO 12,110.0,Improved,2001,74 years 11 months,760000.0,2025,1,24,6909.090909090909,2025-03-01,10,12,11.0,260,2025-Q1,1.39413298199161,103.895443551571,260C SENGKANG EAST WAY COMPASSVALE NORTH GATE SINGAPORE 543260,0.2752523316948654,Sengkang,NE,1,1,13.308453627927854,12.195837037342558,11.17801920541731,17.109656338121514,18.20097741089661,Northeast,0
15423,2017-10,BUKIT BATOK,4 ROOM,225,BT BATOK CTRL,04 TO 06,91.0,New Generation,1985,66 years 10 months,390000.0,2017,4,40,4285.714285714285,2017-10-01,4,6,5.0,225,2017-Q4,1.34849607451431,103.752607744553,225 BUKIT BATOK CENTRAL SINGAPORE 650225,2.0785689140514534,Jurong East,NS/EW,0,0,13.140618351397233,10.150242431291739,26.614979836337465,6.347830358884034,2.0025356799720706,West,0
204353,2025-01,TOA PAYOH,4 ROOM,108,POTONG PASIR AVE 1,13 TO 15,103.0,Model A,1984,58 years 07 months,838000.0,2025,1,41,8135.922330097087,2025-01-01,13,15,14.0,108,2025-Q1,1.33472004322162,103.867928446438,108 POTONG PASIR AVENUE 1 SINGAPORE 350108,1.8298863209173708,Serangoon,NE/CC,0,0,6.051073873880393,5.1916103013635695,14.12760231830844,11.022428055905555,13.82242828378776,Central,1
122482,2022-05,CENTRAL AREA,5 ROOM,1A,CANTONMENT RD,07 TO 09,105.0,Type S2,2011,87 years 09 months,1170000.0,2022,2,14,11142.857142857143,2022-05-01,7,9,8.0,1,2022-Q2,1.27784271048219,103.840965923691,1A CANTONMENT ROAD THE PINNACLE@DUXTON SINGAPORE 085101,0.38954680339464126,Outram Park,EW/NE,1,1,1.2542376086663516,3.0887854050477643,19.304612174802028,7.474491722097754,12.435206373392536,Central,1
32756,2018-08,ANG MO KIO,3 ROOM,623,ANG MO KIO AVE 9,01 TO 03,68.0,New Generation,1980,61 years 02 months,260000.0,2018,3,45,3823.529411764706,2018-08-01,1,3,2.0,623,2018-Q3,1.38265184651407,103.840858094028,623 ANG MO KIO AVENUE 9 YIO CHU KANG HEIGHTS SINGAPORE 560623,1.7098224123878931,Ang Mo Kio,NS,0,0,11.137987399745302,8.761730651938803,16.868338085384465,11.9540982316013,12.144741972884097,Northeast,1
33905,2018-08,PUNGGOL,4 ROOM,211C,PUNGGOL WALK,10 TO 12,92.0,Model A,2014,94 years 08 months,468000.0,2018,3,11,5086.95652173913,2018-08-01,10,12,11.0,211,2018-Q3,1.40076049275572,103.899613559601,211C PUNGGOL WALK PUNGGOL RIPPLES SINGAPORE 823211,0.5121175541551555,Punggol,NE,0,1,14.165690307785113,13.065449291552394,10.98541032122199,17.937425392090386,18.913412141244212,Northeast,0
163446,2023-04,TAMPINES,4 ROOM,916,TAMPINES ST 91,07 TO 09,104.0,Model A,1984,60 years 06 months,572000.0,2023,2,41,5500.0,2023-04-01,7,9,8.0,916,2023-Q2,1.34863107372522,103.940290409375,916 TAMPINES STREET 91 TAMPINES PALMSVILLE SINGAPORE 520916,0.9260651362981025,Tampines,EW/DT,0,1,12.32008175683514,12.956852345690294,5.956573771163278,19.11549996779575,21.9348452999627,East,0
27155,2018-05,JURONG EAST,EXECUTIVE,287B,JURONG EAST ST 21,16 TO 18,140.0,Apartment,1998,79 years 05 months,850000.0,2018,2,27,6071.428571428572,2018-05-01,16,18,17.0,287,2018-Q2,1.3384592408032,103.744222152985,287B JURONG EAST STREET 21 SINGAPORE 602287,0.654047602894242,Jurong East,NS/EW,0,1,13.376370390277648,10.522875712553976,27.639320010415634,5.870273294705525,0.6220163326914693,West,0
156099,2023-01,MARINE PARADE,5 ROOM,2,MARINE TER,07 TO 09,117.0,Standard,1975,51 years 01 month,845000.0,2023,1,50,7222.222222222223,2023-01-01,7,9,8.0,2,2023-Q1,1.30440476785117,103.915295374439,12A MARINE TERRACE MARINE TERRACE BREEZE SINGAPORE 441012,2.7576165897189733,Bedok,EW,0,0,7.533365597269464,9.204047418284121,10.782710852886677,15.464852677420058,19.347810940621148,East,1
122949,2022-03,CHOA CHU KANG,5 ROOM,489C,CHOA CHU KANG AVE 5,01 TO 03,113.0,Improved,2016,93 years 04 months,540000.0,2022,1,9,4778.761061946902,2022-03-01,1,3,2.0,489,2022-Q1,1.37605683547385,103.739806181184,489C CHOA CHU KANG AVENUE 5 SUNSHINE GARDENS SINGAPORE 683489,4.806821901869165,Jurong East,NS/EW,0,0,16.12018931642667,13.032351996528572,28.00908062445933,9.726707645642321,4.817317233322605,West,0
75579,2020-08,BEDOK,3 ROOM,614,BEDOK RESERVOIR RD,07 TO 09,81.0,New Generation,1981,60 years,330000.0,2020,3,44,4074.074074074074,2020-08-01,7,9,8.0,614,2020-Q3,1.332409040218,103.916788909074,614 BEDOK RESERVOIR ROAD EUNOS GROVE SINGAPORE 470614,1.7881477545472015,Bedok,EW,0,0,9.147213459561145,9.877575807903089,9.034940232190253,16.106369360544235,19.25259654441568,East,1
147252,2023-10,BUKIT BATOK,4 ROOM,452A,BT BATOK WEST AVE 6,22 TO 24,93.0,Model A,2019,94 years 06 months,680000.0,2023,4,6,7311.827956989247,2023-10-01,22,24,23.0,452,2023-Q4,1.35265343215969,103.742573096086,452A BUKIT BATOK WEST AVENUE 6 WEST TERRA @ BUKIT BATOK SINGAPORE 651452,2.1966912296285903,Jurong East,NS/EW,0,0,14.3272297934765,11.350902739046706,27.702437998837443,7.279349443101888,2.199445865223417,West,0
122058,2022-09,BUKIT PANJANG,5 ROOM,477,SEGAR RD,04 TO 06,110.0,Premium Apartment,2003,79 years 05 months,475000.0,2022,3,22,4318.181818181818,2022-09-01,4,6,5.0,477,2022-Q3,1.38923939664189,103.773064815385,477 SEGAR ROAD SEGAR GARDENS SINGAPORE 670477,5.506032703360345,Woodlands,NS/TE,0,0,14.649651263992869,11.52640957247021,24.438453753891338,10.30770082035994,7.069245830106361,West,0
190592,2024-06,TAMPINES,3 ROOM,225,TAMPINES ST 23,01 TO 03,73.0,Model A,1984,59 years 07 months,435000.0,2024,2,41,5958.904109589041,2024-06-01,1,3,2.0,225,2024-Q2,1.35515863595555,103.95401278891,225 TAMPINES STREET 23 SINGAPORE 521225,0.8818065961950082,Tampines,EW/DT,0,1,13.982680707437083,14.643998769892733,4.2920412577030085,20.790336315935953,23.52098119541098,East,0
126958,2022-08,JURONG EAST,5 ROOM,278,TOH GUAN RD,13 TO 15,120.0,Improved,1998,75 years 04 months,670000.0,2022,3,27,5583.333333333333,2022-08-01,13,15,14.0,278,2022-Q3,1.34090157770535,103.746437082019,278 TOH GUAN ROAD TOH GUAN VIEW SINGAPORE 600278,1.0015655898270315,Jurong East,NS/EW,0,0,13.287800280583713,10.396906998210614,27.367179815816353,5.9465178311129065,0.9439781207449688,West,0
191500,2024-04,TAMPINES,4 ROOM,717,TAMPINES ST 72,10 TO 12,99.0,Model A,1997,72 years 02 months,619800.0,2024,2,28,6260.606060606061,2024-04-01,10,12,11.0,717,2024-Q2,1.3588121878635,103.935212702172,717 TAMPINES STREET 72 HDB PUBLIC SHELTERS SINGAPORE 520717,1.2977421311971253,Tampines,EW/DT,0,0,12.597701820403188,12.927231626411936,6.287868694993295,18.96135561459336,21.494475178110388,East,0
22434,2018-02,SENGKANG,5 ROOM,405C,FERNVALE LANE,19 TO 21,112.0,Premium Apartment,2004,85 years 01 month,460000.0,2018,1,21,4107.142857142857,2018-02-01,19,21,20.0,405,2018-Q1,1.3891946666414,103.873437402619,405C FERNVALE LANE FERN SPRING SINGAPORE 793405,2.512483456796481,Sengkang,NE,0,0,12.06886109557157,10.479524147052675,13.410636060438021,14.912087894146213,15.732148232615389,Northeast,0
141661,2022-02,YISHUN,4 ROOM,751,YISHUN ST 72,07 TO 09,91.0,New Generation,1984,61 years 03 months,446000.0,2022,1,41,4901.0989010989015,2022-02-01,7,9,8.0,751,2022-Q1,1.42761188817552,103.834268383036,751 YISHUN STREET 72 NEE SOON CENTRAL GREEN SINGAPORE 760751,5.409449609805761,Woodlands,NS/TE,0,0,16.187319008251336,13.713065432664152,18.83854999987741,15.924950160693841,14.577279882518777,North,0
31579,2018-07,PUNGGOL,3 ROOM,209C,PUNGGOL PL,04 TO 06,67.0,Model A,2014,95 years 05 months,345000.0,2018,3,11,5149.253731343284,2018-07-01,4,6,5.0,209,2018-Q3,1.39930949012592,103.900792344556,209C PUNGGOL PLACE PUNGGOL CREST SINGAPORE 823209,0.6142466051917183,Punggol,NE,0,1,14.067725425344538,13.009355366273203,10.804672034548226,17.934513814106747,18.97026067074744,Northeast,0
177033,2024-07,CHOA CHU KANG,EXECUTIVE,560,CHOA CHU KANG NTH 6,04 TO 06,149.0,Apartment,1996,70 years 08 months,810000.0,2024,3,29,5436.241610738255,2024-07-01,4,6,5.0,560,2024-Q3,1.3958254122727,103.745027325729,560 CHOA CHU KANG NORTH 6 SINGAPORE 680560,6.48949210421819,Woodlands,NS/TE,0,0,17.209598820129152,14.075767264333658,27.620491652563402,11.571424926294538,6.998785360604091,West,0
26822,2018-05,BUKIT PANJANG,4 ROOM,223,PENDING RD,10 TO 12,107.0,Model A,1988,68 years 09 months,370000.0,2018,2,37,3457.9439252336447,2018-05-01,10,12,11.0,223,2018-Q2,1.37573517510314,103.773609219643,223 PENDING ROAD SINGAPORE 670223,5.899173104681549,Jurong East,NS/EW,0,0,13.429254240197396,10.293318104716423,24.25419483066637,8.804897197988314,5.815082592485411,West,0
165654,2023-02,WOODLANDS,EXECUTIVE,326,WOODLANDS ST 32,10 TO 12,164.0,Apartment,1995,71 years 01 month,875000.0,2023,1,30,5335.365853658536,2023-02-01,10,12,11.0,326,2023-Q1,1.43042123905158,103.77958246528,326 WOODLANDS STREET 32 SINGAPORE 730326,1.0536954438833943,Woodlands,NS/TE,0,0,18.213791398966563,15.207806472239739,24.674535549815587,14.884447702446648,11.558057044484897,North,0
193833,2024-07,WOODLANDS,4 ROOM,898B,WOODLANDS DR 50,10 TO 12,100.0,Model A,1997,72 years 01 month,540000.0,2024,3,28,5400.0,2024-07-01,10,12,11.0,898,2024-Q3,1.43514317476086,103.795210548115,898B WOODLANDS DRIVE 50 SINGAPORE 731898,0.9877742178682811,Woodlands,NS/TE,0,1,18.018469971880698,15.128086921823202,23.19451242119237,15.546564598376856,12.734494693446697,North,0
109254,2021-10,ANG MO KIO,3 ROOM,585,ANG MO KIO AVE 3,04 TO 06,81.0,New Generation,1979,56 years 09 months,413000.0,2021,4,46,5098.765432098766,2021-10-01,4,6,5.0,585,2021-Q4,1.37059756050933,103.852367040901,585 ANG MO KIO AVENUE 3 CHENG SAN COURT SINGAPORE 560585,0.3146878371703036,Ang Mo Kio,NS,1,1,9.741589719550637,7.6956616337880455,15.481818162033516,11.790597210427102,12.796981197451636,Northeast,1
194964,2024-04,WOODLANDS,EXECUTIVE,361,WOODLANDS AVE 5,10 TO 12,141.0,Apartment,1996,71 years 07 months,855000.0,2024,2,29,6063.829787234043,2024-04-01,10,12,11.0,361,2024-Q2,1.43390675630046,103.784818819684,361 WOODLANDS AVENUE 5 SINGAPORE 730361,0.38170971293210626,Woodlands,NS/TE,1,1,18.321986425371282,15.355414417211598,24.24019455540052,15.296470413173799,12.130120556167656,North,0
107255,2021-09,CHOA CHU KANG,4 ROOM,702,CHOA CHU KANG ST 53,07 TO 09,109.0,Model A,1995,72 years 08 months,418888.0,2021,3,30,3843.009174311928,2021-09-01,7,9,8.0,702,2021-Q3,1.39179994537682,103.745621182307,702 CHOA CHU KANG STREET 53 SINGAPORE 680702,6.559772758464848,Jurong East,NS/EW,0,0,16.840092857529662,13.709026953078347,27.501852801221645,11.124964153212401,6.553227916850963,West,0
66989,2020-02,PASIR RIS,4 ROOM,611,ELIAS RD,01 TO 03,111.0,Model A,1995,74 years 05 months,400000.0,2020,1,30,3603.603603603604,2020-02-01,1,3,2.0,611,2020-Q1,1.37505768778741,103.942533878557,611 ELIAS ROAD SINGAPORE 510611,2.3090744915871535,Tampines,EW/DT,0,0,14.433324111861383,14.543805550319847,5.570740771525256,20.425109702569657,22.605647122464802,East,1
36029,2018-09,PUNGGOL,EXECUTIVE,116,EDGEFIELD PLAINS,01 TO 03,130.0,Premium Apartment,2003,83 years 10 months,500000.0,2018,3,22,3846.153846153846,2018-09-01,1,3,2.0,116,2018-Q3,1.39541568018681,103.906912210986,116 EDGEFIELD PLAINS SINGAPORE 820116,1.1678855925522587,Punggol,NE,0,0,13.960057789462308,13.079553612941988,10.015519618460244,18.199512764931548,19.439713206884306,Northeast,0
87138,2020-12,TAMPINES,4 ROOM,842B,TAMPINES ST 82,04 TO 06,107.0,Model A,1995,73 years 03 months,480000.0,2020,4,30,4485.981308411215,2020-12-01,4,6,5.0,842,2020-Q4,1.35132561986977,103.936921079502,842B TAMPINES STREET 82 TAMPINES ARCADIA SINGAPORE 522842,1.0833786003426802,Tampines,EW/DT,0,0,12.204584409352714,12.731365161070723,6.238942320406447,18.853411304495378,21.587870060013675,East,0
27552,2018-05,QUEENSTOWN,4 ROOM,20,QUEEN'S CL,07 TO 09,107.0,Model A,1996,77 years 06 months,608000.0,2018,2,29,5682.242990654206,2018-05-01,7,9,8.0,20,2018-Q2,1.29275007138267,103.799935877832,20 QUEEN'S CLOSE SINGAPORE 140020,1.9064227833493634,Buona Vista,EW/CC,0,0,5.779239292693429,3.8411020732230146,22.73679117419426,2.6511927870724903,7.691025863571926,Central,1
108559,2021-09,SENGKANG,4 ROOM,216D,COMPASSVALE DR,13 TO 15,92.0,Premium Apartment,2017,94 years 09 months,655000.0,2021,3,8,7119.565217391304,2021-09-01,13,15,14.0,216,2021-Q3,1.39019936957333,103.894575868856,216D COMPASSVALE DRIVE COMPASSVALE MAST SINGAPORE 544216,0.22250607264567052,Sengkang,NE,1,1,12.86671252500859,11.783506532355114,11.149733872232542,16.760103594026695,17.951717364638352,Northeast,0
141037,2022-11,WOODLANDS,3 ROOM,573C,WOODLANDS DR 16,07 TO 09,68.0,Model A,2018,94 years 09 months,408000.0,2022,4,7,6000.0,2022-11-01,7,9,8.0,573,2022-Q4,1.43050173672501,103.797682947729,573C WOODLANDS DRIVE 16 WOODLANDS GLEN SINGAPORE 733573,1.4322916808918487,Woodlands,NS/TE,0,0,17.43948954372667,14.556946839095772,22.764331753192053,15.07599098796847,12.406764411062266,North,0
184759,2024-10,PUNGGOL,4 ROOM,677C,PUNGGOL DR,01 TO 03,93.0,Premium Apartment,2016,91 years,645000.0,2024,4,9,6935.4838709677415,2024-10-01,1,3,2.0,677,2024-Q4,1.40565063473796,103.909749619549,677C PUNGGOL DRIVE WATERWAY BROOKS SINGAPORE 823677,0.8679203479591501,Punggol,NE,0,1,15.12119972283714,14.16857105623748,10.179550759316855,19.15145634900384,20.163593801243895,Northeast,0
134325,2022-01,SENGKANG,5 ROOM,406C,FERNVALE RD,01 TO 03,110.0,Premium Apartment,2004,82 years 01 month,490000.0,2022,1,21,4454.545454545455,2022-01-01,1,3,2.0,406,2022-Q1,1.38867904803847,103.874702601249,406C FERNVALE ROAD FERN VIEW SINGAPORE 793406,2.380172510022797,Sengkang,NE,0,0,12.042759128584958,10.490049178581938,13.261239432636335,14.974883354544623,15.838740346733262,Northeast,0
92462,2021-03,BEDOK,5 ROOM,219B,BEDOK CTRL,01 TO 03,112.0,Improved,2010,88 years 02 months,862000.0,2021,1,15,7696.428571428572,2021-03-01,1,3,2.0,219,2021-Q1,1.32542365484015,103.933559134228,219B BEDOK CENTRAL LINEAR GREEN @ BEDOK SINGAPORE 462219,0.3751093507022917,Bedok,EW,1,1,10.319132280517056,11.477223216035116,7.763325165944286,17.762277313225685,21.13316630067502,East,1
1222,2017-02,ANG MO KIO,4 ROOM,596D,ANG MO KIO ST 52,16 TO 18,91.0,Model A,2003,84 years 11 months,632000.0,2017,1,22,6945.054945054945,2017-02-01,16,18,17.0,596,2017-Q1,1.37187135282659,103.851030423419,596D ANG MO KIO STREET 52 CITY VIEW @ CHENG SAN SINGAPORE 564596,0.26188474048153604,Ang Mo Kio,NS,1,1,9.882044137085364,7.7908509543970474,15.63713600895182,11.78480328078162,12.704297974716594,Northeast,1
52939,2019-07,CENTRAL AREA,3 ROOM,30,KELANTAN RD,13 TO 15,65.0,Improved,1981,61 years 01 month,355000.0,2019,3,44,5461.538461538462,2019-07-01,13,15,14.0,30,2019-Q3,1.30547181939625,103.856879434972,30 KELANTAN ROAD KELANTAN COURT SINGAPORE 200030,0.519892224616887,Bugis,EW/DT,0,1,2.582818529595944,2.713296982641402,16.336721902599677,9.000822041093803,12.956825792605287,Central,1
106290,2021-08,TOA PAYOH,3 ROOM,98,LOR 1 TOA PAYOH,04 TO 06,68.0,Improved,1970,47 years 05 months,278000.0,2021,3,55,4088.235294117647,2021-08-01,4,6,5.0,98,2021-Q3,1.33917577957921,103.848380074395,98 LORONG 1 TOA PAYOH TOA PAYOH PALM SPRING SINGAPORE 310098,1.3486208125612626,Bishan,NS/CC,0,0,6.253247793082131,4.2609027978924745,16.15512451616919,9.297310428849768,11.668730546150229,Central,1
107183,2021-09,BUKIT PANJANG,5 ROOM,163,GANGSA RD,25 TO 27,120.0,Improved,1998,75 years 08 months,765000.0,2021,3,27,6375.0,2021-09-01,25,27,26.0,163,2021-Q3,1.37626324137774,103.764450950694,163 GANGSA ROAD SINGAPORE 670163,5.414132356410932,Jurong East,NS/EW,0,0,14.14613410883423,11.011580960548953,25.27393042033113,8.957187286618698,5.349955129133513,West,0
101104,2021-06,WOODLANDS,4 ROOM,546,WOODLANDS DR 16,10 TO 12,101.0,Model A,2000,78 years 04 months,455000.0,2021,2,25,4504.950495049505,2021-06-01,10,12,11.0,546,2021-Q2,1.42970406750651,103.793970297136,546 WOODLANDS DRIVE 16 SINGAPORE 730546,1.153171637796279,Woodlands,NS/TE,0,0,17.50133484571271,14.587262598646559,23.127317128872647,14.928817867719717,12.133358555839344,North,0
9576,2017-06,WOODLANDS,4 ROOM,12C,MARSILING LANE,19 TO 21,93.0,Model A,2013,95 years,395000.0,2017,2,12,4247.311827956989,2017-06-01,19,21,20.0,12,2017-Q2,1.44108587711762,103.777781234398,12C MARSILING LANE STRAITS VISTA @ MARSILING SINGAPORE 733012,1.0751491544394574,Woodlands,NS/TE,0,0,19.3712604075599,16.3810922005727,25.24126193584395,16.066830186619093,12.615531650021952,North,0
2809,2017-03,CLEMENTI,3 ROOM,346,CLEMENTI AVE 5,04 TO 06,82.0,New Generation,1979,61 years,435000.0,2017,1,46,5304.878048780488,2017-03-01,4,6,5.0,346,2017-Q1,1.31701655142406,103.770055178868,346 CLEMENTI AVENUE 5 SINGAPORE 120346,2.5210272288574664,Buona Vista,EW/CC,0,0,9.76100022094697,7.084283015276743,25.174332834650563,2.3772616855896964,3.4304783270261807,West,1
174586,2024-01,BUKIT MERAH,5 ROOM,7,KIM TIAN PL,10 TO 12,131.0,Model A,1984,59 years 07 months,1080888.0,2024,1,41,8251.053435114503,2024-01-01,10,12,11.0,7,2024-Q1,1.28392508534814,103.828263774087,124 KIM TIAN PLACE SINGAPORE 160124,1.3803642314026277,Outram Park,EW/NE,0,0,2.5296110258899827,2.3140131864549867,20.23260160962746,5.935289655948197,10.873680819864388,Central,1
8520,2017-06,CLEMENTI,4 ROOM,379,CLEMENTI AVE 5,04 TO 06,91.0,New Generation,1980,62 years 03 months,550000.0,2017,2,45,6043.956043956044,2017-06-01,4,6,5.0,379,2017-Q2,1.31797801720797,103.767831518404,379 CLEMENTI AVENUE 5 SINGAPORE 120379,2.790053320469428,Buona Vista,EW/CC,0,0,10.030309276957386,7.348050733789979,25.39415099543341,2.5608659486459704,3.1637211444861615,West,1
132637,2022-12,PUNGGOL,4 ROOM,288C,PUNGGOL PL,01 TO 03,98.0,Premium Apartment,2013,89 years 04 months,595000.0,2022,4,12,6071.428571428572,2022-12-01,1,3,2.0,288,2022-Q4,1.40255090260619,103.903557130195,288C PUNGGOL PLACE PUNGGOL ARCADIA SINGAPORE 823288,0.2950715973245277,Punggol,NE,1,1,14.520691848508037,13.481456317532407,10.656704525738311,18.401183332657617,19.394815095751984,Northeast,0
102,2017-01,BEDOK,4 ROOM,124,BEDOK NTH RD,07 TO 09,92.0,New Generation,1978,60 years 04 months,395000.0,2017,1,47,4293.478260869565,2017-01-01,7,9,8.0,124,2017-Q1,1.32925881944574,103.939046430321,124 BEDOK NORTH ROAD SINGAPORE 460124,1.1155988209188588,Bedok,EW,0,0,11.057061574290088,12.165095651993745,7.019174291564375,18.44179531346442,21.73055921178031,East,1
192266,2024-03,TAMPINES,EXECUTIVE,889,TAMPINES ST 81,07 TO 09,146.0,Maisonette,1989,63 years 11 months,950000.0,2024,1,36,6506.8493150684935,2024-03-01,7,9,8.0,889,2024-Q1,1.34991348311537,103.931049462008,889 TAMPINES STREET 81 TAMPINES GROVE SINGAPORE 520889,1.7523557776337155,Tampines,EW/DT,0,0,11.599473782672705,12.072398043252287,6.910276498164813,18.185054838078656,20.92341765738202,East,0
15659,2017-10,CHOA CHU KANG,5 ROOM,685B,CHOA CHU KANG CRES,10 TO 12,110.0,Improved,2002,83 years 11 months,340000.0,2017,4,23,3090.909090909091,2017-10-01,10,12,11.0,685,2017-Q4,1.40363737705198,103.748176927162,685B CHOA CHU KANG CRESCENT SINGAPORE 682685,5.641603340762238,Woodlands,NS/TE,0,0,17.623658051578257,14.487091675568275,27.398020904020576,12.30857999453341,7.882075593323608,West,0
136343,2022-11,SENGKANG,EXECUTIVE,302D,ANCHORVALE LINK,01 TO 03,130.0,Apartment,2001,78 years 01 month,635000.0,2022,4,24,4884.615384615385,2022-11-01,1,3,2.0,302,2022-Q4,1.3882037089642,103.889719168414,302D ANCHORVALE LINK ANCHORVALE COURT SINGAPORE 544302,0.7894389660307016,Sengkang,NE,0,1,12.46483694572261,11.291656084329057,11.619725020903724,16.199930433792492,17.36823214096073,Northeast,0
60357,2019-10,YISHUN,4 ROOM,174,YISHUN AVE 7,04 TO 06,84.0,Simplified,1987,67 years 01 month,280000.0,2019,4,38,3333.333333333333,2019-10-01,4,6,5.0,174,2019-Q4,1.43739545335207,103.831939137109,174 YISHUN AVENUE 7 SINGAPORE 760174,5.051312603959803,Woodlands,NS/TE,0,0,17.298252604589827,14.799670499325813,19.506006778236323,16.82912287212748,15.213213734307377,North,0
151165,2023-11,CLEMENTI,4 ROOM,716,CLEMENTI WEST ST 2,04 TO 06,91.0,New Generation,1981,56 years 11 months,503000.0,2023,4,44,5527.472527472528,2023-11-01,4,6,5.0,716,2023-Q4,1.30240953060904,103.762804760851,716 CLEMENTI WEST STREET 2 SINGAPORE 120716,3.1098317469426586,Buona Vista,EW/CC,0,0,10.039104588926149,7.750603154368214,26.34076247078726,1.643602864655716,4.006562483295694,West,1
70033,2020-04,SENGKANG,4 ROOM,436C,FERNVALE RD,22 TO 24,96.0,Model A,2010,88 years 11 months,436000.0,2020,2,15,4541.666666666667,2020-04-01,22,24,23.0,436,2020-Q2,1.39231468377271,103.876970188022,436C FERNVALE ROAD FERNVALE GROVE SINGAPORE 793436,2.10538762572025,Sengkang,NE,0,0,12.493373763309183,10.964455145995855,13.10436683568354,15.435719480488187,16.231279882557267,Northeast,0
126605,2022-12,HOUGANG,5 ROOM,610,HOUGANG AVE 8,04 TO 06,122.0,Improved,1986,62 years 09 months,615000.0,2022,4,39,5040.983606557377,2022-12-01,4,6,5.0,610,2022-Q4,1.37031263468239,103.88512562936,610 HOUGANG AVENUE 8 SINGAPORE 530610,2.6061952453151305,Serangoon,NE/CC,0,0,10.423556358898729,9.38633783095783,11.84318504705434,14.603586470892173,16.273279382582317,Northeast,0
71841,2020-06,PASIR RIS,4 ROOM,440,PASIR RIS DR 4,04 TO 06,106.0,Model A,1989,68 years,410000.0,2020,2,36,3867.924528301887,2020-06-01,4,6,5.0,440,2020-Q2,1.36900809318444,103.958696603631,440 PASIR RIS DRIVE 4 SINGAPORE 510440,2.1278012882881994,Tampines,EW/DT,0,0,15.323022880312037,15.76619081354166,3.6823575959344317,21.805832655019874,24.24575341532061,East,1
141340,2022-12,WOODLANDS,5 ROOM,526,WOODLANDS DR 14,01 TO 03,127.0,Premium Apartment,2000,76 years 05 months,560000.0,2022,4,25,4409.4488188976375,2022-12-01,1,3,2.0,526,2022-Q4,1.43289614274331,103.79276813435,526 WOODLANDS DRIVE 14 FRAGRANT WOODS SINGAPORE 730526,0.8268577994866025,Woodlands,NS/TE,0,1,17.880578964726983,14.965815963275634,23.367486539460824,15.26427408644649,12.389792267472918,North,0
